지점ID,매점명,주소,전화번호,위도,경도
288582,대치학원가점,서울 강남구 도곡로77길 8 1층 101호,,37.4989059,127.0586591
288411,울산달동사거리점,"울산 남구 중앙로 158 101동 1층 101호(달동, 쁘띠팔레드 시티)",052-266-8899,35.5352541,129.3143173
288012,대전청사점,"대전 서구 둔산중로134번길 21 (둔산동, 만금프라자)",042-487-7779,36.3590263,127.3881258
288010,고성봉포점,강원특별자치도 고성군 토성면 봉포4길 14 1층,,38.2531759,128.5621232
287022,전남무안농협본점,전남 무안군 무안읍 무안중앙로 105 (교촌리),061-454-1581,34.9936532,126.4704749
286798,경남고성점,경남 고성군 고성읍 동외로 170 1층,,34.9763332,128.3262831
286778,포천이동점,경기 포천시 이동면 화동로 2112 (장암리),031-531-5413,38.0362522,127.3668932
286777,인천남동구청점,"인천 남동구 장승로 17 3동 103호, 104호(만수동, 창대장터상가)",070-4324-3929,37.4462381,126.7348671
286688,서초우성점,서울 서초구 사임당로 181 1층 101호,,37.4930451,127.0293404
286609,어린이대공원정문점,서울 광진구 능동로 237 1층(군자동),02-6949-6226,37.5513288,127.0761170
285684,광명센트럴아이파크점,"경기 광명시 광이로 49 상가동 101호(광명동, 광명센트럴아이파크)",070-4797-0771,37.4831872,126.8584917
285679,수지동천점,경기 용인시 수지구 동천로 39 코아프라자 1층,,37.3403812,127.0986127
285676,춘천강원대이룸관점,"강원특별자치도 춘천시 강원대학길 1 이룸관동 1층(효자동, 강원대학교)",033-256-5360,37.8684418,127.7438324
285550,울산유곡점,울산 중구 종가3길 20 1층 일부호(우아동3가),070-8680-1225,35.5606105,129.2966176
285543,전주대자인병원점,전북특별자치도 전주시 덕진구 견훤로 380 1층 일부호(우아동3가),063-242-0111,35.8451790,127.1534915
285537,전북사대부고점,전북특별자치도 전주시 덕진구 조경단로 105 1층 102호(금암동),,35.8436138,127.1384368
285529,삼성디스플레이아산2(A2)점,충남 아산시 탕정면 탕정로 380-2 A2공장동 1층 (삼성디스플레이 아산2캠퍼스 일반산업단지A1-2 (A2사무동 동편로비)),,36.8191965,127.0633012
285523,창원럭키반림점,"경남 창원시 성산구 반송로 107 제일반상가동 1층 3-1호(반림동, 럭키반림아파트)",055-266-3286,35.2381028,128.6680324
284198,광화문시대점,서울 종로구 사직로8길 42 102-1호,,37.5737740,126.9731379
284197,수원당수성산타워점,경기 수원시 권선구 당수로 124 성산타워 106호(당수동),031-406-9234,37.2852222,126.9430864
284196,용인동백이마트사거리점,"경기 용인시 기흥구 동백죽전대로 455-11 455-11, 1층 B236호",,37.2787224,127.1503137
284082,명지전문대점,서울 서대문구 가좌로 140 (홍은동),02-304-2291,37.5845680,126.9242004
284081,수원성빈센트병원점,경기 수원시 팔달구 중부대로 80 상가2동 1층 22호,070-4334-3900,37.2761724,127.0255808
283937,정선사북점,강원특별자치도 정선군 사북읍 사북중앙로 22 (사북리),033-592-1961,37.2267845,128.8171636
283936,거제한화오션남문점,경남 거제시 거제대로 3447-1 (아주동),,34.8674123,128.6932545
283935,전남무안청계농협점,"전남 무안군 청계면 영산로 1685 (도림리, 청계농협)",061-452-5605,34.9093130,126.4293945
283934,순천조례명성점,전남 순천시 조례신대길 37 1층 외 1필지,,34.9618195,127.5178154
283933,광주산수그린점,광주 동구 동계로 38 121동 지하 1층 18호,062-232-2111,35.153868,126.925692
282667,안산서울예대점,경기 안산시 단원구 예술대학로 161 제1층 제104호(고잔동),031-8042-4769,37.3312442,126.8387275
282662,대부도점,경기 안산시 단원구 대부황금로 1516-15,070-7799-3104,37.2879571,126.5768445
282660,전남담양터미널점,전남 담양군 담양읍 중앙로 24 1층,061-382-4438,35.3152696,126.9836747
282406,진해웅동로점,경남 창원시 진해구 웅동로 42-5 2층,055-546-4153,35.1243736,128.7819354
282170,파주운정역점,경기 파주시 운정역길 384-8 (야당동),,37.7249205,126.7678698
282159,광주비아호반점,"광주 광산구 비아로 185 1층 상가 102동 101호, 102호",062-952-0394,35.2239665,126.8245523
281466,안산시곡점,경기 안산시 상록구 감골1로 33 104호,,37.2879715,126.8517795
281465,순천금당점,전남 순천시 해룡면 장선배기길 284 상가동 1층 104호(청솔아파트),061-903-9409,34.9453570,127.5298827
281464,통영동피랑점,경남 통영시 통영해안로 347,,34.8449911,128.4255519
281244,강서가로공원점,"서울 강서구 가로공원로 191 1층 101호(화곡동,류성빌딩)",,37.5374192,126.8371639
281243,광주하남산단입구점,광주 광산구 용아로 450 1층 104호,062-419-9782,35.1834725,126.8051662
280628,성남을지대후문점,경기 성남시 수정구 수정로578번길 28 1층 (양지동),031-733-7994,37.4618095,127.1662447
280627,서초구청점,서울 서초구 남부순환로347길 24 1층 대림빌딩,,37.4855347,127.0317660
280626,청천푸르지오점,"인천 부평구 세월천로 34 1층 124호(청천동, 대우프라자)",,37.5132007,126.7056506
280625,문정이엠365점,서울 송파구 새말로8길 21-1 1층(문정동),,37.4808555,127.1269002
279755,양평양수리점,경기 양평군 양서면 양수로 149 1층,,37.5441565,127.3195995
278745,퇴계원남한강마트점,경기 남양주시 퇴계원읍 퇴계원로6번길 21 (퇴계원리),,37.6487195,127.1431449
278493,안양신원타워점,"경기 안양시 동안구 전파로 88 1층 105호, 117호, 118호(호계동,신원비젼타워)",,37.3893969,126.9425483
278452,울산함월점,울산 중구 함월22길 7 1층,052-710-5737,35.5784005,129.3176441
277910,삼성전자평택사무3동점,경기 평택시 삼성1로 469 사무3동 2층,,37.0414129,127.0563252
277905,성수코리아IT점,"서울 성동구 성수일로12길 26 1층 106호, 107호",070-4155-4100,37.5478924,127.0538015
277831,안산다문화거리점,경기 안산시 단원구 원본로 25 1층 일부(원곡동),031-491-8989,37.3306908,126.7926899
277795,화성향남2지구점,경기 화성시 향남읍 상신하길로298번길 11 106호,031-353-3305,37.1147838,126.9110534
277794,석촌호수서호입구점,서울 송파구 삼학사로19길 2 1층 101호(삼전동),02-6268-8842,37.5058980,127.0969595
277400,서울중구청점,서울 중구 창경궁로 21 104호(예관동),,37.5644987,126.9980157
277399,전주신라스테이점,전북특별자치도 전주시 완산구 현무1길 10-15 1층(경원동3가),063-231-6161,35.8199463,127.1483253
277398,용인수지고점,경기 용인시 수지구 수풍로 93 다온빌에이동 1층 101호,,37.3321265,127.0933370
276972,원주개운점,강원특별자치도 원주시 남원로 612 (개운동),,37.3378389,127.9514842
276971,광주양산우미점,광주 북구 양산로 15 1층 101호(양산동),062-417-7070,35.2110787,126.8761514
276593,천안종합운동장점,충남 천안시 서북구 백석3로 43,,36.8218780,127.1164046
276378,나주루멘하임점,"전남 나주시 그린로 325 1동 102호(빛가람동, 부영프라자)",061-334-3111,35.0155583,126.7947420
275820,시흥물왕호수점,"경기 시흥시 산현마을길 58 1층 102호(산현동, 청담트윈스2)",070-4032-7457,37.3764448,126.8452128
275701,천안두정먹자골목점,"충남 천안시 서북구 두정로 168 1층 103호(두정동, 은혜빌딩)",041-418-9645,36.8335645,127.1354790
275602,청주비하효성점,충북 청주시 흥덕구 2순환로1050번길 13-1,043-902-7327,36.6408190,127.4214740
275598,광주상무시민공원점,"광주 서구 상무공원로 92 101호(치평동, 대주상가)",062-385-3526,35.1524001,126.8431960
275467,삼척정상점,"강원특별자치도 삼척시 동해대로 4044-10 1층(정상동, 꿈꾸는뜰)",,37.4415283,129.1786064
275463,창원힐스테이트더퍼스트점,경남 창원시 성산구 대상중앙로 10 일원  대상힐스테이트창원더퍼스트 128동 102호,055-715-1779,35.2227861,128.6701179
275454,완주이서점,전북특별자치도 완주군 이서면 이서로 90-7 1층 가운데 호실,063-222-4213,35.8201958,127.0268689
275453,안양중앙시장점,경기 안양시 만안구 냉천로193번길 12 1층 일부호(안양동),031-466-1727,37.3970468,126.9188539
275451,과천래미안슈르점,경기 과천시 별양로 28 상가동 1층 1010호,070-7798-5129,37.4211738,126.9912596
275366,전주삼천남양점,전북특별자치도 전주시 완산구 삼천천변1길 34 111동 106호,,35.7950073,127.1144528
274734,수내돌고래시장점,"경기 성남시 분당구 돌마로356번길 3 (수내동, 그랜드빌딩)",031-715-3872,37.3697159,127.1233299
274732,영암삼호현대점,전남 영암군 삼호읍 신항로 120 1층,061-461-5555,34.7484991,126.3759252
274592,곤지암삼리점,경기 광주시 곤지암읍 평촌길 30-3 1층,,37.3566143,127.3258921
274591,국회의사당역점,서울 영등포구 국회대로 780 1층 118호,,37.5298309,126.9192656
274583,청주강내점,충북 청주시 흥덕구 강내면 가로수로 538 1,043-904-4900,36.6235748,127.3599452
274574,경산펜타힐즈점,"경북 경산시 펜타힐즈2로 65 1층 112호 (중산동, 펜타힐즈더원)",070-4797-4944,35.8295195,128.7199445
274079,화성석포점,경기 화성시 팔탄면 석포로 10-2 2층 일부호,,37.1316435,126.8426096
274013,제주일도인제점,제주특별자치도 제주시 고마로 101 1,,33.5053814,126.5414153
274007,광주금호중학교점,광주 서구 금부로 97 1층 (금호동),062-373-3777,35.1398737,126.8596008
273901,파주별하람마을점,경기 파주시 가람로 121-1 1층 103호,,37.7401758,126.7600813
273900,약수역2번출구점,서울 중구 다산로 147 1층(신당동),02-3298-5013,37.5569748,127.0116184
273899,동탄숨마데시앙점,"경기 화성시 동탄신리천로3길 71 상가동 105, 106호",,37.1818978,127.1359405
273588,병점역복합타운점,"경기 화성시 병점노을4로 19 1층 117호(병점동, 골든스퀘어1)",,37.2055091,127.0308901
273587,광주수완성덕점,광주 광산구 장덕로 48 1층 101호(장덕동),062-961-4090,35.1946578,126.8149546
273144,영덕군청점,경북 영덕군 영덕읍 군청길 109,054-733-1255,36.4143395,129.3673403
267563,창원동정점,"경남 창원시 의창구 서상로 33 (서상동, 오성상가)",,35.2630950,128.6165968
267560,판교역점,경기 성남시 분당구 대왕판교로606번길 31 1층 118호,,37.3966909,127.1106823
267559,광주전남대생활관점,광주 북구 용봉로 77 전남대학교생활관공용동 1층 (9호관),062-716-5930,35.1778193,126.9080453
266875,원주단계공원점,강원특별자치도 원주시 무실로 174 (단계동),033-735-2359,37.3412770,127.9397891
266874,천안삼거리공원점,충남 천안시 동남구 충절로 369 113,041-415-1774,36.7876065,127.1669611
266762,대구알파시티점,대구 수성구 알파시티2로 24 102호,053-218-2118,35.8395789,128.6918323
266761,이문래미안라그란데점,"서울 동대문구 이문로35길 12 근린생활시설C동 110호(이문동,래미안라그란데아파트)",070-4010-7114,37.5997704,127.0612623
266760,천안4공단점,충남 천안시 서북구 직산읍 상덕로 6 1층 105호,070-4231-1422,36.8680102,127.1181819
266697,진해마천공단점,"경남 창원시 진해구 남영로 557 (남양동, 오예통통집)",070-4333-8874,35.1196740,128.7816464
266696,광주운천역점,광주 서구 상무민주로5번길 21 1층 109호(쌍촌동),062-714-3372,35.1505870,126.8565051
265962,잠실본동점,서울 송파구 백제고분로18길 3,,37.5047580,127.0850659
265956,대전관저월드프라자점,대전 서구 관저북로 25 104호,042-719-8227,36.3039870,127.3367406
265946,석전KS마트점,경남 창원시 마산회원구 북성로 262 (석전동),,35.2300932,128.5677020
265945,대구동성로중앙제일점,대구 중구 중앙대로 394 1층(남일동),070-8872-2002,35.8683198,128.5940020
265887,성신여대입구역6번출구점,서울 성북구 아리랑로 6 (동선동4가),,37.5933315,127.0165685
265322,총신대입구역1번출구점,서울 서초구 동작대로 128 2층(방배동),02-3478-9033,37.4878858,126.9826281
265320,컴포즈커피 나주남평로중앙점,전남 나주시 남평읍 남평2로 54-1 좌측코너,061-930-8891,35.0470340,126.8420140
265316,삼성전기세종사업장점,세종특별자치시 연동면 삼성길 25 삼성전기 세종사업장 한울림프라자 2층 일부,,36.5406447,127.3342958
265315,정읍시기코아루점,전북특별자치도 정읍시 정읍남로 1393 (시기동),063-536-8542,35.5586339,126.8546190
264561,익산원광대점,전북특별자치도 익산시 무왕로 894 103호(신동),063-841-1122,35.9635474,126.9577435
264560,경동시장사거리점,서울 동대문구 고산자로 420 힐스테이트 청량리 메트로블 125호,,37.5771451,127.0387062
264559,전주서신쌍용점,"전북특별자치도 전주시 완산구 당산로 11-1 상가2동 1층 1호, 2호(서신동, 쌍용서신아파트)",,35.8327902,127.1093761
264558,엄궁초점,부산 사상구 엄궁북로 23 1층(엄궁동),051-714-5657,35.1286312,128.9728878
264557,신포로데오점,인천 중구 개항로 9-1 1층(중앙동4가),,37.4714043,126.6238024
263818,인천계산도두리점,인천 계양구 용종로 2 108,070-8866-1103,37.5340374,126.7415048
263459,안산와동점,경기 안산시 단원구 와동공원로 134 1층 일,031-411-1333,37.3433897,126.8215996
263075,인천정석빌딩점,인천 중구 서해대로 366 정석빌딩 신관 1층,032-710-5349,37.4596101,126.6326487
263072,인천작전행운점,인천 계양구 장제로 708 103호,032-282-9090,37.5310293,126.7342646
262682,은평대림시장점,서울 은평구 응암로 180 (응암동),02-6956-4589,37.5880711,126.9170475
262678,행주산성나루터점,경기 고양시 덕양구 행주산성로 190 1층(행주외동),,37.6026232,126.8152261
262643,춘천강원대공과대학점,강원특별자치도 춘천시 백령로 67 1층,,37.8694916,127.7376824
262021,대구교동점,대구 중구 국채보상로123길 16 1층,070-8722-8851,35.8713960,128.5975991
261942,횡성알프스점,강원특별자치도 횡성군 우천면 한우로 1270 (우항리),,37.4595304,128.0666067
261911,연대서문점,서울 서대문구 성산로17길 39 (연희동),,37.5639684,126.9329250
261909,수원못골시장점,경기 수원시 팔달구 중부대로39번길 6 1층,031-254-0100,37.2755002,127.0214159
261907,양주덕계역점,"경기 양주시 덕계로4길 4 104호(덕계동,케이타워)",,37.8176828,127.0570376
261906,울산선암점,울산 남구 두왕로154번길 29 1층(선암동),052-265-0725,35.5144578,129.3103036
261905,의왕스마트시티퀀텀점,경기 의왕시 광진말로 54 S동 127호,031-8058-8085,37.3210324,126.9405957
261084,창녕영산점,경남 창녕군 영산면 영산장마로 745 1층,055-521-1056,35.4575089,128.5253464
260758,광양태인점,전남 광양시 삼봉산로 5 D동 3호(태인동),061-795-0808,34.9351538,127.7458176
259470,군산나운영창점,"전북특별자치도 군산시 의료원로 131 상가2동 101호(나운동, 영창아파트)",063-468-1526,35.9577556,126.7015413
259469,대천해수욕장점,충남 보령시 머드광장로 14 (신흑동),,36.3160020,126.5125679
259468,학익시티오씨엘1단지점,"인천 미추홀구 학익로 116 126동 1층 (학익동, 시티오씨엘1단지)",070-4833-6173,37.4419511,126.6431760
259154,전주신일강변점,전북특별자치도 전주시 완산구 강변로 98-1 1층,,35.7999752,127.1138533
259153,청주율량사천점,충북 청주시 청원구 율봉로 97 104호,043-216-3069,36.6669045,127.4801068
259129,천안직산점,충남 천안시 서북구 직산읍 아랫말1길 17 (삼은리),041-582-0101,36.8775700,127.1505300
259078,청주커넥트현대점,충북 청주시 흥덕구 2순환로 1225 6층 616호,,36.6269924,127.4306879
259075,안산목내점,경기 안산시 단원구 별망로 453 1층 104호,070-7537-3259,37.3040413,126.7754515
258691,전주상산타운점,전북특별자치도 전주시 완산구 거마평로 121 상가 2동 1층 102호,063-221-6008,35.8033390,127.1165647
258453,인천송도유원지점,인천 연수구 인권로 11 1층,070-4066-3531,37.4188397,126.6515341
258261,서울올림픽파크포레온점,"서울 강동구 양재대로 1319 1층 103호(성내동, 대성빌딩)",,37.5241988,127.1344526
258216,울산삼호점,울산 남구 어은로 33-1 1층(무거동),052-277-0326,35.5522308,129.2744863
258157,마산산호베스티움점,"경남 창원시 마산합포구 회원천북길 491 1층 103호(산호동, 산호베스티움상가)",070-8230-0915,35.2094587,128.5820532
258156,속초수복탑사거리점,강원특별자치도 속초시 중앙로 216 1층,,38.2096986,128.5933530
258155,천안성정롯데점,충남 천안시 서북구 성정두정로 12,041-903-1115,36.8265708,127.1415119
258154,성남법원점,경기 성남시 중원구 산성대로 456-1 1층 전체(금광동),070-7626-5244,37.4523631,127.1606198
258149,시흥옥구점,"경기 시흥시 정왕대로 64 129,130호(정왕동, 메가쇼핑몰)",031-498-0915,37.3542659,126.7235246
257107,원주엔터비즈타워점,강원특별자치도 원주시 입춘로 45 1층 148호,,37.3277309,127.9785529
257104,의정부부대찌개거리점,경기 의정부시 태평로133번길 20 1층(의정부동),,37.7443286,127.0499988
257100,광명트리우스점,경기 광명시 광이로 96 2단지내 상가 3동 104호,02-6953-6565,37.4855425,126.8613589
256466,금곡북부소방서점,부산 북구 효열로 275 1층(금곡동),051-363-8331,35.2672113,129.0183529
256261,경희외국어대학관점,경기 용인시 기흥구 덕영대로 1732 외국어대학관내 1층,,37.2432813,127.0798263
256128,목동문화체육센터점,서울 양천구 목동중앙본로 68-1 목동근생및다가구주택 1층 좌측점포,02-2644-4550,37.5419157,126.8693176
256061,신림신화교점,서울 관악구 신림로 199 1층(신림동),,37.4755356,126.9362061
256060,평택브리티시고덕점,경기 평택시 고덕국제대로 77 1314호,,37.0443655,127.0419030
255919,에코델타푸르지오점,부산 강서구 에코델타1로 66 상가동 105호,070-8691-3585,35.1476656,128.9147022
255918,서천장항점,충남 서천군 장항읍 장서로 66 (창선2리),,36.0136863,126.6988753
255917,광주흑석중흥점,광주 광산구 풍영로145번길 15 상가동 1층 101호,,35.1838839,126.8130915
255859,이천관고시장점,경기 이천시 영창로 162 1층,,37.2815738,127.4405110
255855,경희전자국제점,경기 용인시 기흥구 덕영대로 1732 108호 전자정보대학관,070-8287-1564,37.2432813,127.0798263
255850,인천논현중앙점,인천 남동구 논고개로136번길 5-11,070-4694-2084,37.4039045,126.7245325
255459,나주동강농협주유소점,전남 나주시 동강면 남악동강로 1432 (월양리),061-335-5182,34.9299004,126.5670558
254795,일산문화광장점,"경기 고양시 일산동구 중앙로1275번길 38-10 1층 103호(장항동, 우림로데오스위트)",031-932-0699,37.6599463,126.7709599
254794,마곡아이파크디어반점,"서울 강서구 마곡중앙8로7길 57 B동 1층 111호(마곡동, 마곡아이파크 디어반)",070-7585-6865,37.5661927,126.8392747
254616,동탄영천골드프라자점,"경기 화성시 동탄영천로 81-5 1층 111호(영천동, 골든프라자)",,37.2096788,127.1029740
254615,대구수성보성타운점,대구 수성구 수성로 412 117동 102호,070-7777-5792,35.8626522,128.6151594
254614,평택칠원하모니점,경기 평택시 새말로 17 1층(칠원동),031-665-1752,37.0284532,127.1036856
254552,나주송월부영점,전남 나주시 나주로 41-17 상가동 101호,061-331-8111,35.0241304,126.7150375
254549,광주운암미라보점,"광주 북구 서강로 155 상가동 9호, 20호(운암동, 미라보아파트)",062-522-1106,35.1849636,126.8752263
254021,구서역점,부산 금정구 구서로 11,0503-5260-9495,35.2465894,129.0896267
253993,동대신동점,부산 서구 구덕로315번길 10-8 1층,051-253-0901,35.1122438,129.0162013
253987,부산시민회관점,부산 동구 조방로 14 125호,0507-1315-1614,35.1387523,129.0634901
253986,부산대2호점,부산 금정구 금강로 248-10,051-581-1102,35.2300390,129.0854165
253796,원주무실제일풍경채점,강원특별자치도 원주시 무실로 353-2 근린생활시설 2동 111호,,37.3307040,127.9323054
253795,익산삼기농협로컬푸드점,전북특별자치도 익산시 삼기면 하나로 1334,8:30 - 20:00,36.0374015,126.9833492
253377,아산온양농협하나로점,충남 아산시 남부로 246,041-533-0450,36.7703549,127.0093961
253372,숭의오거리점,인천 미추홀구 독배로 437 101호(가우디),,37.4585315,126.6486758
252594,양평용문점,경기 양평군 용문면 용문로 356 (다문리),031-771-8410,37.4841568,127.5933808
252593,신검단중앙역점,인천 서구 고산후로 222 푸리마더타워 103호,032-563-2722,37.6034746,126.6988930
252508,아산세교행복타워점,충남 아산시 배방읍 세교중앙로 36 행복타워2 107호,041-534-1210,36.7788849,127.0938704
252480,광주신안점,광주 북구 무등로202번길 42 (신안동),062-522-7111,35.1633612,126.9045476
252470,안성죽산점,경기 안성시 죽산면 죽주로 242 (죽산리),,37.0744468,127.4222460
252468,부천대사거리점,경기 부천시 원미구 장말로 314-3 1층,,37.4908740,126.7769012
252462,서천특화시장점,충남 서천군 서천읍 충절로 34 (군사리),,36.0753642,126.6863914
252243,인천루원복합청사점,인천 서구 봉오재3로 130 106호,,37.5270977,126.6738653
252242,인하대문화거리점,인천 미추홀구 인하로 73 (용현동),070-4632-7168,37.4514661,126.6564939
252027,대림대학교홍지관점,경기 안양시 동안구 임곡로 29 대림대학 종합강의동(홍지관) 2층,,37.4033679,126.9297887
251239,울산효문공단점,울산 북구 효자로 107-1 1층,,35.5708954,129.3672196
251238,군산지곡점,전북특별자치도 군산시 신지길 11 1층 102호(지곡동),063-468-7111,35.9585780,126.7056219
251237,대전배재대학교점,"대전 서구 배재로 155-40 (도마동, 배재대학교)",,36.3202020,127.3652283
251192,창원대학교점,경남 창원시 의창구 퇴촌로 41 1층,055-286-3534,35.2422145,128.6896450
251003,파주상지석점,경기 파주시 운정로 139 1층,,37.7214425,126.7811646
251002,거제상동다이소점,경남 거제시 상동5길 91 1층,055-950-3073,34.8628158,128.6315448
251001,인천대공원점,인천 남동구 무네미로 238,032-467-0500,37.4585939,126.7519672
250137,일산차병원점,경기 고양시 일산동구 중앙로 1205 일산차병원 2층 208호실,070-8899-5411,37.6541317,126.7757374
249791,킨텍스역꿈에그린점,경기 고양시 일산서구 킨텍스로 240 판매시설동 1층 128호,031-819-0101,37.6659013,126.7504499
249349,군포삼성마을점,경기 군포시 삼성로20번길 4-16 (부곡동),031-392-5356,37.3368313,126.9339077
249347,해방촌오거리점,서울 용산구 신흥로 89,,37.5456788,126.9854509
249346,해방촌오거리점,서울 용산구 신흥로 89,,37.5456788,126.9854509
249342,철산자이더헤리티지점,경기 광명시 시청로 70 철산자이더헤리티지 상가2-10호,,37.4820053,126.8712611
248880,충북영동점,충북 영동군 영동읍 중앙로 41-1,043-742-6811,36.1756710,127.7777632
248879,홍제폭포점,서울 서대문구 연희로 262-37,,37.5818460,126.9367823
248856,무안오룡우미린점,"전남 무안군 일로읍 오룡번영1로 96 (오룡리, 오룡 우미린 더 시그니처 2차)",,34.7963596,126.4843630
248847,춘천애막골점,강원특별자치도 춘천시 후석로186번길 10 (석사동),033-262-5654,37.8675422,127.7531118
248843,용인호수마을점,경기 용인시 기흥구 평촌1로2번길 6-1,,37.2846855,127.1535764
248840,원주천매사거리점,강원특별자치도 원주시 남원로 441-6 1층,,37.3257661,127.9405967
248491,세종아름송남타워점,"세종특별자치시 보듬3로 154 1층 112호(아름동, 송남빌딩)",044-998-0486,36.5122701,127.2426441
248113,진주도동점,경남 진주시 하대로 83 101호,055-752-0101,35.1932807,128.1207604
248111,광주유스퀘어터미널점,광주 서구 무진대로 904 유스퀘어 내 1층,062-352-6232,35.1606026,126.8798482
248106,전주에코스위첸점,전북특별자치도 전주시 덕진구 세병로 174-19 103호,063-909-6165,35.8802653,127.1340302
248103,시흥장현코리아프라자점,경기 시흥시 장현능곡로 1 102호,,37.3730302,126.7909746
248028,홈플러스월드컵점,"서울 마포구 월드컵로 240 2층 푸드코트 내 XE, y31호",02-304-9991,37.5682885,126.8972730
248024,원주치악회관점,강원특별자치도 원주시 치악로 1692 치악회관 1층,,37.3347576,127.9590533
247374,인천주안남초점,인천 미추홀구 인주대로418번길 10,070-4647-4556,37.4506684,126.6829057
247294,서귀포위미점,제주특별자치도 서귀포시 남원읍 태위로 99 (위미리),,33.2747774,126.6580082
246673,병점송화초점,경기 화성시 병점1로 66-12 1층 101-2호,070-8657-3327,37.2021399,127.0415549
246672,광주경안중앙점,"경기 광주시 중앙로 88 1층(역동, 대영빌딩)",070-8777-0912,37.4078392,127.2594954
246671,울산반구점,울산 중구 화합로 431 (반구동),052-937-1127,35.5633531,129.3364950
246666,목포옥암한라비발디점,"전남 목포시 남악2로22번길 10 상가동 102호(옥암동, 한라비발디)",061-984-0081,34.8068037,126.4548319
246487,안성롯데캐슬점,경기 안성시 대덕면 서동대로 4723 (신령리),070-7798-1353,37.0131929,127.2255919
246411,대전선화하늘채점,대전 중구 대종로594번길 51 120호,042-222-8878,36.3365144,127.4195292
246408,평택세무서점,경기 평택시 죽백5로 27 105호,031-654-4135,37.0038079,127.1189249
245911,순천대점,"전남 순천시 중앙로 255 48동 천연물신약연구소 1층(석현동, 순천대학교)",061-752-2688,34.9689183,127.4809015
245909,대전신성자운대점,대전 유성구 유성대로1184번길 14,070-8680-1211,36.3936251,127.3521899
245670,양재영동점,서울 서초구 바우뫼로41길 16,070-7720-3556,37.4812690,127.0413220
245668,검단법원광장점,인천 서구 이음4로 10 102호 (검단KR법조타워2),032-202-4800,37.5909337,126.7104253
245286,충주호암한신더휴점,충북 충주시 호암토성2로 7 (호암동),070-8672-9658,36.9558005,127.9350097
245141,동평화시장점,"서울 중구 청계천로 318 동평화1층 가동 110-2, 111-2",02-2231-7567,37.5693352,127.0137717
245022,포천선단대진대점,경기 포천시 호국로 997 영일빌딩 1층,070-7537-3650,37.8540257,127.1660688
244979,판교원마을점,경기 성남시 분당구 운중로 239 도메인타워 104호 (판교동),070-8211-0653,37.3898280,127.0898262
244360,김해시청점,경남 김해시 호계로422번길 18-1 (부원동),055-724-3901,35.2282200,128.8872068
244356,순천왕지점,전남 순천시 왕궁길 43 1층,061-721-0111,34.9547700,127.5320729
244349,서산해미점,충남 서산시 해미면 남문2로 154 1층,,36.7104609,126.5478124
244348,서울공항점,경기 성남시 수정구 대왕판교로 1210,,37.4380822,127.1069420
244347,검단모아엘가그랑데점,인천 서구 이음4로 93 2317동 105호,070-8698-0399,37.5936810,126.7192390
244346,동탄장지점,경기 화성시 동탄장지천6길 62 1층,031-375-4529,37.1579869,127.1083083
244344,용인모현에듀프라자점,경기 용인시 처인구 모현읍 백옥대로2476번길 17 애듀프라자 108호,031-338-8333,37.3447190,127.2527614
243355,전남담양매화점,전남 담양군 담양읍 매화길 10 1층,061-383-8111,35.2984962,126.9990825
243163,진해중원로타리점,경남 창원시 진해구 백구로 55 1층,070-4044-7088,35.1497253,128.6590013
243017,평창대관령점,강원특별자치도 평창군 대관령면 대관령로 92 1층,,37.6725860,128.7064341
242896,동탄더퍼스트타워점,경기 화성시 동탄기흥로 614 110호,031-8043-3145,37.2150877,127.0949923
242837,광양동부농협로컬푸드점,전남 광양시 옥곡면 신금로 110 1층 컴포즈커피,061-772-7786,34.9720331,127.7207921
242760,진주주약점,경남 진주시 진주대로815번길 12-2 1층일부(주약동),055-921-4433,35.1734336,128.0926825
242646,광교플렉스데시앙점,경기 수원시 영통구 창룡대로256번길 50 B1층 L7호,,37.2953842,127.0389645
242251,원주축협본점,강원특별자치도 원주시 원일로 233 (학성동),,37.3565672,127.9430212
242247,강원인제점,강원특별자치도 인제군 인제읍 비봉로 28 (상동리),,38.0668528,128.1734778
242246,울산미즈병원점,울산 남구 남산로 2 1층,070-7543-0597,35.5523152,129.2709080
241781,방학동부점,서울 도봉구 도봉로145길 14,02-6014-3558,37.6647008,127.0418014
241633,서울숲한라시그마밸리점,서울 성동구 뚝섬로 385-32 (성수동2가),02-462-8911,37.5393931,127.0543982
241575,광주본촌광신대점,광주 북구 양산택지로 105 1층,,35.2151515,126.8825802
241574,세종봉암점,세종특별자치시 연서면 당산로 358 1층,044-866-1043,36.5633489,127.2832484
241001,원주흥업점,강원특별자치도 원주시 흥업면 남원로 80 1층,033-900-1979,37.3030862,127.9203600
241000,하남풍산점,경기 하남시 덕풍동로 111 113호,031-791-0522,37.5512053,127.2084564
240508,중구이테크타워점,서울 중구 퇴계로 264 1층,02-2138-1517,37.5625592,127.0010245
240504,원주송문사거리점,강원특별자치도 원주시 소초면 치악로 2318 1동,070-8211-0638,37.3821497,127.9745313
240496,광주충장NC점,광주 동구 충장로46번길 15 1층(충장로4가),062-222-6058,35.1493413,126.9121180
239694,일산동구청점,경기 고양시 일산동구 정발산로 47 웅신아트 115호,,37.6577626,126.7737463
239550,전남화순농협하나로마트점,전남 화순군 화순읍 쌍충로 74 1층,061-373-8111,35.0587937,126.9822225
238820,광주유동점,광주 북구 중가로 60 (유동),062-515-2209,35.1590314,126.9067805
238819,수원경희대점,경기 수원시 영통구 영일로6번길 35,031-202-3287,37.2483507,127.0778815
238671,광양중마성호점,전남 광양시 광장로 70 아파트상가 빅마트 옆,061-795-7952,34.9332431,127.6906807
238355,김포고촌행정복지센터점,경기 김포시 고촌읍 장차로 19,070-4354-1917,37.6037472,126.7705806
238354,마석소방서점,경기 남양주시 화도읍 수레로1260번길 15 병권빌딩 101호,031-559-0328,37.6499705,127.3035961
238353,인천검단제일풍경채2차점,"인천 서구 고산후로 305 (불로동, 신검단중앙역풍경채어바니티2차)",070-7543-3457,37.6119396,126.6951656
238297,전주인후부영점,전북특별자치도 전주시 덕진구 무삼지로 43 1층,,35.8293946,127.1638877
238296,순천신대해룡점,전남 순천시 해룡면 신대2길 6-41 1층 110호,061-902-9244,34.9356668,127.5475289
238162,구의이스트폴점,서울 광진구 아차산로 402 롯데캐슬이스트폴 101동 3호,02-455-5565,37.5366969,127.0878216
237629,부천건주병원점,경기 부천시 소사구 경인로536번길 42 층(괴안동),032-349-7779,37.4841078,126.8161146
237599,강원태백포레스트애시앙점,강원특별자치도 태백시 고원로 119 상가동 103호,033-553-3014,37.1660936,128.9902747
237594,구리한양대병원점,경기 구리시 경춘로 162,070-8865-0710,37.6004567,127.1333308
237488,진주반성점,경남 진주시 일반성면 동부로 2004 1층 일부,055-747-5847,35.1698242,128.2807220
237404,서수원꿈에그린점,경기 수원시 권선구 서수원로37번길 6-16 (오목천동),,37.2334692,126.9777013
237400,등촌역점,서울 강서구 공항대로 553 (염창동),,37.5499416,126.8675493
237342,안산고잔보화점,경기 안산시 단원구 보화로 23,031-402-5331,37.3313284,126.8298392
237330,대구교대점,대구 남구 중앙대로 217,053-721-7818,35.8526060,128.5899836
237259,군포평생학습원사거리점,경기 군포시 고산로 251 용호프라자 103호,031-393-0528,37.3459308,126.9440861
237257,김포모담도서관점,경기 김포시 모담공원로 118 (운양동),031-8049-6440,37.6498493,126.6917818
237222,부천중동시장점,경기 부천시 원미구 부흥로 205 1층,032-213-2112,37.4961764,126.7656149
237170,천안안서점,충남 천안시 동남구 각원사길 66,041-622-8879,36.8305830,127.1790469
235912,광주임동한국점,광주 북구 천변우로79번길 89 1층,062-522-0671,35.1664767,126.8914712
235882,판교봇들마을점,경기 성남시 분당구 판교로 376 1층 102호,031-705-6536,37.4039533,127.1161822
235629,송우사거리점,경기 포천시 소흘읍 솔모루로 53,031-542-5509,37.8271142,127.1445439
235628,오류ic점,"서울 구로구 경인로 240 (오류동, 예성라온팰리스)",02-2060-2016,37.4974382,126.8472908
235507,시흥길산지식산업센터점,경기 시흥시 경기과기대로 219 105호,031-498-3117,37.3344900,126.7325859
235488,대구범물점,"대구 수성구 용학로 272 (범물동, 범물창신태성한라맨션)",053-781-3535,35.8192543,128.6386547
235314,전주소양천점,전북특별자치도 전주시 덕진구 초포다리로 190 1층,063-251-5859,35.8726590,127.1575149
234853,신경주역점,"경북 경주시 건천읍 경주역세권1로 90 (화천리, 신경주 유보라아이비파크 1단지)",,35.8054906,129.1401921
234418,충주연수예성로점,충북 충주시 예성로 398,,36.9918021,127.9343217
234274,당진석문점,충남 당진시 석문면 해명4로1길 40,041-430-7726,36.9785652,126.5895109
234267,광주신가풍영리버빌점,"광주 광산구 수등로 287 상가동 1층 114호(신창동, 신가부영아파트)",062-456-0603,35.1870303,126.8393036
234266,완주삼봉지구점,전북특별자치도 완주군 삼례읍 상탁길 47 1층,063-206-2060,35.9191560,127.1176386
234261,광주도산점,"광주 광산구 도산로 10 1층 103, 104호",062-457-5669,35.1291753,126.7917393
233542,인천루원시티SK2차점,인천 서구 봉오대로 270 302동 B204호,,37.5235973,126.6819632
233538,일산장항로점,경기 고양시 일산동구 장항로 273,,37.6422822,126.7692747
233374,화명하늘채후문점,"부산 북구 화명신도시로 70 상가1동 1층 106호(화명동, 코오롱하늘채1차아파트)",,35.2304251,129.0115390
232294,삼성전자천안캠퍼스점,"충남 천안시 서북구 번영로 465 (성성동, 삼성전자(주)천안캠퍼스)",,36.8417602,127.1188281
232170,월미짱랜드점,인천 중구 월미문화로 81 랜드마크 1층,,37.4713720,126.5963911
231764,청라제일풍경채점,인천 서구 청라커낼로 321 104호105호,032-583-1000,37.5372142,126.6444001
231568,안산사동중앙점,경기 안산시 상록구 석호로 208 범희빌딩 103호,031-407-7666,37.2946736,126.8537673
231566,부산대역2번출구점,부산 금정구 부곡온천천로 32 1층,,35.2290338,129.0898648
230667,대구칠곡매천점,대구 북구 매전로 80 1층 103호(태전동),053-326-3335,35.9128522,128.5468571
230586,강원화천터미널점,"강원특별자치도 화천군 화천읍 중앙로 13-1 (하리, 이삭토스트외)",033-442-3331,38.1046473,127.7058519
230585,강원횡성운동장점,강원특별자치도 횡성군 횡성읍 문화체육로 31 (읍하리),033-342-0400,37.4957539,127.9858192
230567,평택더샵센트럴점,경기 평택시 동삭1로22번길 19-17 102호,031-658-2829,37.0206347,127.0930221
230566,공릉태릉사거리점,서울 노원구 공릉로 98,,37.6191946,127.0784600
229586,광주선운어등진아점,"광주 광산구 선운중앙로 82 상가동 1층 130호, 104호(선암동)",,35.1455087,126.7833959
229582,대구신매역점,대구 수성구 고산로 90 상가동 1층 103호,,35.8384791,128.7053986
229574,횡성새말IC점,강원특별자치도 횡성군 우천면 한우로 1400 (우항리),033-343-2333,37.4495598,128.0738757
228448,익산배산점,"전북특별자치도 익산시 선화로 17 117동 104호(모현동2가, 배산오투그란데)",063-852-2525,35.9527504,126.9339934
228447,대전한밭수목원만년점,대전 서구 만년로67번길 34-26 대전서구 만년동 316,8:00 - 251:00,36.3687353,127.3816131
228442,서울세관사거리점,서울 강남구 학동로 235 (논현동),02-514-2282,37.5156050,127.0350255
228433,오산칸타빌더퍼스트점,경기 오산시 초평중앙로 140 1층 106호,031-372-1990,37.1432573,127.0482346
227095,용인신갈역점,경기 용인시 기흥구 새천년로 22 101호,031-3061-2820,37.2890943,127.1116464
227091,삼성전자화성(17L)점,경기 화성시 삼성전자로 1 삼성전자 내 (123)S3동 1층 일부호(반월동),,37.2234547,127.0633657
227087,옥정제일풍경채점,경기 양주시 옥정동로 187 107호 - 연락처 : 070-7857-8801,070-7857-8801,37.8236418,127.0986631
226461,충북보은점,충북 보은군 보은읍 보은로 107 (삼산리),,36.4837504,127.7177493
226458,광주신가선창초교점,광주 광산구 신창로35번길 97 1층,062-961-1155,35.1865880,126.8342690
226245,부산북부면허시험장점,부산 사상구 사상로367번길 42 1층,051-711-7177,35.1780352,128.9819369
226077,울산삼산디자인거리점,울산 남구 삼산중로74번길 6 1층 106호,052-256-2977,35.5401422,129.3363058
226035,분당느티마을점,경기 성남시 분당구 느티로51번길 4-13,070-8211-0494,37.3690968,127.1113283
224933,당진신평점,"충남 당진시 신평면 덕평로 1384 (거산리, 김밥마을)",041-363-8355,36.8783092,126.7526105
224927,충북광혜원점,"충북 진천군 광혜원면 중리3길 21 (광혜원리, 옥산빌딩)",043-534-0324,36.9894846,127.4439339
224921,용인초당점,경기 용인시 기흥구 동백중앙로 55 (중동),103호,37.2611771,127.1618699
224917,화성반월SK뷰파크1차점,경기 화성시 동탄원천로 382-37 SK뷰파크 제상가2동(후문 상가동) 저1층 제112호,031-222-3007,37.2229184,127.0566745
223723,일산공단중앙점,경기 고양시 일산동구 장항로 187 (장항동),,37.6386867,126.7776797
223720,동탄대방디에트르점,경기 화성시 동탄오산로 29 (동탄2 택지개발지구 업무복합2블록) 동탄2신도시 동탄역 디에트르 더 플레이스 마당 판매시설 D동 123호(오산동),031-374-1201,37.1993238,127.0901895
223714,속초법대로점,"강원특별자치도 속초시 법대로 20 (동명동, 인트레빌하버뷰)",033-633-7936,38.2126133,128.5933036
223073,양평물맑은시장점,경기 양평군 양평읍 양평시장길 4-1 17,031-772-2883,37.4897280,127.4927895
223059,화성사강시장점,경기 화성시 송산면 사강로 201 B동,070-4353-7176,37.2134572,126.7380583
223048,천안불당호반점,충남 천안시 서북구 불당34길 25-6 106호,041-622-9238,36.8075980,127.1056206
222741,진해석동먹자골목점,경남 창원시 진해구 냉천로 45 1층,,35.1514542,128.7022747
221994,천안신부점,충남 천안시 동남구 터미널2로 25,041-903-5939,36.8212241,127.1580123
221989,전주대신정문점,전북특별자치도 전주시 완산구 봉곡1길 1 (효자동3가),063-903-5717,35.8133815,127.0971856
221984,방학역점,서울 도봉구 도봉로150길 27 (방학동),,37.6661840,127.0447629
221982,파주역점,경기 파주시 파주읍 주라위길 78,031-952-7760,37.8152628,126.7953616
221973,시흥월곶풍림점,"경기 시흥시 월곶중앙로70번길 3 (월곶동, 진주마을 풍림1차 아이원 단지내 상가동)",070-4647-2633,37.3894538,126.7380123
219378,상도e편한세상점,서울 동작구 만양로 6 1층 110호,02-6368-5029,37.5050223,126.9475492
219372,서초방배로점,"서울 서초구 방배로 113 (방배동, 수정빌딩)",,37.4841847,126.9956303
218345,광주용봉택지로점,광주 북구 설죽로 207 1층(용봉동),062-513-8111,35.1781840,126.8971918
218338,고양대곡역롯데캐슬점,경기 고양시 덕양구 토당로 124 287-1 근린생활시설,031-972-1237,37.6260069,126.8178951
218336,김해구산푸르지오점,"경남 김해시 삼계로 30 111호(구산동, 탑스존)",055-724-0320,35.2570889,128.8695448
217498,용인성복역아이파크점,"경기 용인시 수지구 상현로 144 (상현동, 성복역 아이파크)",031-303-9877,37.3098551,127.0848337
217078,고양서오릉점,경기 고양시 덕양구 서오릉로 293 (용두동),,37.6194503,126.9043788
217036,월계인덕대점,서울 노원구 초안산로2라길 26 102-1호,,37.6305211,127.0576337
216967,대전통합청사점,대전 중구 대종로517번길 61 1층 105호,042-224-8884,36.3284186,127.4212605
216966,전남장성나노산단점,전남 장성군 남면 나노산단5로 15 (삼태리),,35.2368813,126.8331525
216831,청주분평농협사거리점,충북 청주시 서원구 월평로 4,,36.6110003,127.4853065
216659,한성대입구역점,서울 성북구 삼선교로 4 1층,07:30 - 22:30,37.5880068,127.0064308
216596,양주광적점,경기 양주시 광적면 가래비길 118 (가납리),031-829-2270,37.8253801,126.9841488
216539,진주정촌점,경남 진주시 정촌면 화개천로 126 1층,070-8199-1117,35.1281330,128.1039151
216262,김해주촌공단점,경남 김해시 주촌면 골든루트로 193-26 (망덕리),070-8770-2067,35.2225214,128.8236161
216243,전북고창월곡점,전북특별자치도 고창군 고창읍 중앙로 316 (교촌리),063-563-6111,35.4346902,126.7100558
215162,청주율량현대점,충북 청주시 청원구 주성로132번길 28-2 (율량동),,36.6694398,127.4819265
214746,순천신대로점,전남 순천시 해룡면 상성길 324 가동 1층,061-721-5111,34.9439076,127.5394519
214652,좌동점,부산 해운대구 좌동순환로 174 106호,051-711-3528,35.1776265,129.1750479
214425,대전둔산자이파크점,대전 서구 계룡로500번길 72 (갈마동),042-348-7788,36.3417466,127.3778365
213983,용호시장점,"부산 남구 용호로 173 (용호동, 장안빌딩)",051-916-7142,35.1167725,129.1114258
213922,평택지제점,경기 평택시 지제동삭1로 41 근생 130동 18호,070-8211-0579,37.0229222,127.0755031
213921,강릉회산점,강원특별자치도 강릉시 회산로 346 115동 101~102호,,37.7393206,128.8662079
213712,천안터미널점,충남 천안시 동남구 만남로 18,070-8648-3447,36.8184252,127.1540122
213691,목포이로초등학교점,전남 목포시 이로로9번길 16 (용해동),061-273-6532,34.8036134,126.4062969
213684,컴포즈커피 나주금천농협빛가람점,전남 나주시 중야2길 24 (빛가람동),061-333-5554,35.0169427,126.7851553
212984,양산북부점,경남 양산시 중앙우회로 142 1층 일부호,055-388-0010,35.3482332,129.0388656
212982,대전용산호반써밋점,대전 유성구 배울1로 132 108호,,36.4164144,127.3940211
212957,창원대산점,경남 창원시 의창구 대산면 진산대로 360 주건축물제1동 1층 일부호,,35.3320294,128.7094371
212945,양산사송내송점,경남 양산시 동면 내송큰들로 73 상가동 412호(사송더샵데시앙 4단지),055-785-1232,35.3215423,129.0700947
212624,봉천제일종합시장점,서울 관악구 남부순환로 1768 1층,070-8866-6765,37.4816723,126.9463737
212538,서산테크노밸리점,"충남 서산시 성연면 성연3로 36 (왕정리, 이안 서산테크노밸리)",041-429-2200,36.8236553,126.4517712
212491,대구만촌역점,대구 수성구 달구벌대로 2565 1층 103호(만촌동),,35.8592574,128.6432932
212355,대구만촌역점,대구 수성구 달구벌대로 2565 1층 103호,,35.8592574,128.6432932
212300,광주백운대성초교점,광주 남구 제중로 136 1층,062-676-4089,35.1430653,126.9068672
212132,개봉현대아파트점,서울 구로구 개봉로20길 78 1층,02-6012-3955,37.4932678,126.8587060
211402,동국대학교정보문화관점,"서울 중구 필동로1길 30 (필동3가, 동국대학교)",,37.5582582,127.0001869
211218,전남해남터미널점,전남 해남군 해남읍 중앙1로 2-10 1층 102호,061-958-9831,34.5716179,126.6076785
211209,대전복합터미널점,대전 동구 동서대로 1679 (용전동),042-624-1110,36.3493808,127.4360494
211170,광주효덕로점,광주 남구 효덕로 213 1층 103호,062-681-7000,35.1027964,126.8983477
211166,봉화산역점,서울 중랑구 신내로 211 144호,070-7798-1988,37.6163597,127.0927002
211119,대구검단점,대구 북구 검단로 135 104동 116호 (검단팩토리밸리),070-8648-1287,35.9091873,128.6220335
210947,대전도마호반점,대전 서구 도산로 65 (도마동),042-525-0426,36.3143947,127.3783811
210275,정읍중앙로점,"전북특별자치도 정읍시 조곡천1길 62 (시기동, 동경이야기)",063-537-7550,35.5670115,126.8512089
210274,익산부송라온점,전북특별자치도 익산시 마한로 203 (부송동),063-831-5685,35.9663990,126.9859075
208444,창원상남한마음병원점,경남 창원시 성산구 원이대로682번길 21 1층,055-268-7879,35.2208644,128.6872100
208439,광주일곡마을로점,광주 북구 일곡마을로 9 1층,070-7525-8100,35.2060864,126.9001637
208438,군산조촌더샵점,전북특별자치도 군산시 궁포1로 79 104호,063-442-6622,35.9794574,126.7460308
208240,수원화서역점,경기 수원시 팔달구 덕영대로697번길 7 아트프라자 101호,070-4415-9515,37.2848940,126.9905473
208229,인천구월정각사거리점,인천 남동구 구월로 223 위너스프라자 101호,032-465-4504,37.4564911,126.7157168
207996,평강역우창점,부산 강서구 대저중앙로 7 나동 1층 일부(대저1동),051-831-0365,35.2149287,128.9499557
206706,잠실역사점,서울 송파구 올림픽로 지하 265 5번출구 라인 B-20,,37.5131513,127.0988333
206413,기흥삼성반도체점,경기 화성시 삼성1로6길 27,,37.2280748,127.0739092
206376,컴포즈커피 새벽시장로점,부산 사상구 새벽시장로 25 1층 컴포즈커피,051-913-5420,35.1559440,128.9768726
205517,부천카톨릭대점,경기 부천시 원미구 부일로685번길 33 A동 101호,,37.4857046,126.8052703
205465,금산추부점,충남 금산군 추부면 하마전로 35,070-7576-4959,36.1908981,127.4707459
205336,용인상갈점,"경기 용인시 기흥구 금화로 101 (상갈동, 그린빌프라자)",031-287-7579,37.2661956,127.1069534
205151,울산세양청구점,울산 남구 남중로126번길 5 1층,052-274-6048,35.5456486,129.3490213
204451,광주봉선중앙로점,"광주 남구 대남대로159번길 24 A동 1층 104,105호",062-673-6854,35.1315057,126.9072542
204293,서귀포화순점,제주특별자치도 서귀포시 안덕면 화순로 151 (화순리),010-2737-7651,33.2464116,126.3301108
203490,길음뉴타운점,서울 성북구 길음로 33 길음뉴타운 제상가비동 제지2층 제8호,,37.6072048,127.0194894
203411,아산탕정지웰시티점,충남 아산시 탕정면 한들물빛5로 36 G동 1층 101호,070-8211-2527,36.7858616,127.0868579
203320,당진센트레빌점,충남 당진시 수청중앙로 85 상가동 1층 컴포즈커피,010-9094-2542,36.8987130,126.6495994
203233,오산호반라포레점,경기 오산시 죽담3로 6 오산W빌딩 101호,070-4012-7008,37.1636863,127.0504457
203190,속초대포항점,"강원특별자치도 속초시 동해대로 3747-1 1, 2층",010-2796-8357,38.1699970,128.6053979
202782,구리검배사거리점,경기 구리시 검배로 124 1층 102호,031-566-7307,37.5940134,127.1515557
202716,울산수암시장점,울산 남구 수암로 126 A2동 5호,052-700-7095,35.5277913,129.3208298
202715,전남곡성군청점,전남 곡성군 곡성읍 군청로 26 1층,061-363-4436,35.2805432,127.2929498
201951,분당정자두산타워점,경기 성남시 분당구 정자일로 158 1층 103동,,37.3643418,127.1063145
201387,천안시청점,충남 천안시 서북구 불당25로 174 1층,,36.8163542,127.1084244
201242,목포용해점,전남 목포시 포미로 16 1층,061-279-0800,34.8174286,126.3978950
200890,제주베라체점,제주특별자치도 제주시 승천로 74 1층,064-711-7995,33.4921911,126.5425781
200875,평택시청점,경기 평택시 평택5로20번길 34 1층,031-692-8886,36.9895344,127.1140017
200845,울산신복초교점,울산 남구 신복로72번길 26 1층,052-976-4691,35.5517649,129.2546817
200621,울산진하점,울산 울주군 서생면 해맞이로 1586 1층,052-237-1888,35.3832825,129.3419701
200260,평택바로E빌딩점,경기 평택시 탄현로371번길 55 101호,010-3929-7617,37.0872955,127.0598299
200259,제주드림타워점,제주특별자치도 제주시 원노형남1길 11 (노형동),064-743-7977,33.4842433,126.4817797
199985,봉천e편한세상점,서울 관악구 쑥고개로 70 1층 102호,02-882-4123,37.4793696,126.9441835
199542,전남영암대불점,전남 영암군 삼호읍 대불주거로 173 1층,061-463-3333,34.7539915,126.4565768
199242,화도휴게소점,경기 남양주시 화도읍 경춘로 2186 1층,031-591-7956,37.6539657,127.3305463
199238,평촌트리지아점,경기 안양시 동안구 귀인로 90 1층,070-8211-2365,37.3818026,126.9498194
198212,대구봉리단길점,대구 중구 대봉로43길 21 401동 106호,,35.8568233,128.6006821
197758,가야태화현대점,부산 부산진구 가야대로 635-12 1층 101호,051-892-6486,35.1563555,129.0416531
197614,광주금호화개점,광주 서구 화개중앙로 71-1 1층,062-674-3111,35.1255474,126.8542960
196529,불광초점,서울 은평구 불광로2길 2 1층,,37.6119421,126.9319515
196518,화성비봉상업지구점,경기 화성시 비봉면 간곡1길 27,031-357-3009,37.2449929,126.8736292
196455,파주운정월드점,경기 파주시 경의로 1204 월드타워10차 113호,031-957-9726,37.7249997,126.7615217
196410,제주대학교점,제주특별자치도 제주시 제주대학로 109 (아라이동),,33.4603630,126.5616532
196103,파주법원사거리점,경기 파주시 법원읍 사임당로 832 1층,031-959-7055,37.8491653,126.8731763
195895,광주신가모아엘가점,광주 광산구 목련로355번길 61 1층 102호,062-531-6497,35.1822377,126.8301163
195495,일산레이킨스몰점,경기 고양시 일산서구 호수로 817 레이킨스몰 121호,010-5810-6308,37.6682829,126.7511979
195464,화성남양로점,경기 화성시 남양읍 남양로 589 1동 3호,031-8043-2218,37.1923631,126.8212982
195463,숭실대중문점,서울 동작구 사당로 20 1층,070-7703-0901,37.4951458,126.9567297
195462,효창공원점,서울 용산구 효창원로69길 6 1층,,37.5416334,126.9618464
195373,광주하남어등점,광주 광산구 사암로215번길 31 1층(우산동),062-463-3678,35.1635529,126.8065877
195289,광교경기도청점,경기 수원시 영통구 도청로66번길 6 114호,031-548-0913,37.2891945,127.0513655
195279,천안북일고점,충남 천안시 동남구 북일로 71,,36.8289879,127.1580081
194701,행당시장점,서울 성동구 행당로17길 32,,37.5610862,127.0325570
194612,나주마한농협양산점,"전남 나주시 왕곡면 장산양산길 37 (양산리, 마한농협 양산지점)",061-337-5690,34.9733471,126.7056559
194213,대구태전중앙점,대구 북구 태암남로 1 1층,,35.9257338,128.5476461
192565,동래메가마트점,"부산 동래구 충렬대로 197 (명륜동, 메가마트 동래점)",,35.2046412,129.0811356
192423,마산양덕수출후문점,경남 창원시 마산회원구 양덕동2길 15 1층,055-713-7305,35.2222339,128.5898881
191355,일산만자고개점,경기 고양시 일산서구 덕이로 225-3 2층 203호,031-911-0667,37.6972814,126.7378104
191354,경기광주밀목점,경기 광주시 중앙로 327,,37.4287352,127.2584079
191317,수원시청역점,경기 수원시 팔달구 효원로 278 파비오더씨타 109호,,37.2611088,127.0324397
191124,인천청학용담공원점,인천 연수구 용담로 44 102호,032-221-0032,37.4195695,126.6725009
190979,양산경동스마트점,경남 양산시 신덕계로 34 상가동 102호,055-383-8382,35.3781616,129.1585415
190974,마산합성두산위브점,"경남 창원시 마산회원구 팔용로 89 상가동 1층 107호(합성동, 창원두산위브더센트럴 1단지)",055-256-5048,35.2373262,128.5874489
189773,장림두산제니스점,부산 사하구 장림로 199 402동 1층 16호,051-966-9995,35.0828930,128.9720000
189765,경북청도냉정점,경북 청도군 청도읍 냉정1길 7 1층,054-372-7770,35.6469881,128.7388123
189753,당정역점,경기 군포시 고산로211번길 31 1층 107호,,37.3439051,126.9509706
189410,전남곡성옥과점,전남 곡성군 옥과면 대학로 140 (리문리),061-363-8888,35.2758101,127.1349819
189409,청주가경점,"충북 청주시 흥덕구 장구봉로 71 14동 103호(가경동, 덕일한마음아파트)",043-903-0705,36.6235033,127.4413420
188614,천안역점,충남 천안시 동남구 은행길 2 1층,041-622-6777,36.8080963,127.1478147
188401,종로르메이에르점,"서울 종로구 종로 19 1층 108-2호(종로1가, 르메이에르종로타운1)",070-8887-8111,37.5708345,126.9798606
188398,수원영통벽적골점,경기 수원시 영통구 덕영대로1555번길 16 생활편익시설동 1층 132호,031-548-4404,37.2467959,127.0615894
188158,광주첨단쌍암점,"광주 광산구 월계로 217 1층 104호(쌍암동, 첨단프라자)",062-972-2767,35.2136804,126.8493253
188076,인천성지초등학교점,인천 계양구 아나지로247번길 11 1층 108호,070-7734-1349,37.5266168,126.7192121
187356,대전중리점,대전 대덕구 한밭대로 1158,070-8704-8700,36.3585087,127.4272703
187078,고양DMC플렉스데시앙점,경기 고양시 덕양구 향동로 217 RB134호,02-6048-2829,37.6090578,126.8923953
186917,마천중앙시장점,서울 송파구 마천로41길 1,,37.4974251,127.1477889
186602,광주운암롯데캐슬점,광주 북구 동운로213번길 36 1층(운암동),062-513-7111,35.1759835,126.8736370
185406,상계보람점,서울 노원구 한글비석로 474 보람상가 147호,070-7585-8229,37.6648282,127.0654593
185018,파주동문그린시티점,경기 파주시 조리읍 대원로 22 나동 107호,031-947-1689,37.7266812,126.8193920
185016,광주평동점,광주 광산구 평동로 801 1층,062-447-7333,35.1246157,126.7619566
184942,진천터미널점,충북 진천군 진천읍 중앙북로 20,043-753-7719,36.8589434,127.4391924
184515,과천RF사옥점,경기 과천시 과천대로12길 110 제1동 1층 105호,,37.4147904,126.9905289
183205,춘천거두리점,강원특별자치도 춘천시 동내면 공지로 70-51 (거두리),,37.8547339,127.7513648
182673,용인한숲시티점,경기 용인시 처인구 남사읍 한숲로 83 5BL 122호,,37.1563617,127.1705908
182591,천안자이타워점,충남 천안시 서북구 2공단1로 17 B120호,070-7755-9844,36.8455538,127.1205656
181619,봉담수기교차로점,경기 화성시 봉담읍 세자로 369-3 1층,,37.1987641,126.9836730
181618,회현SK리더스점,서울 중구 퇴계로 72 1층,02-3789-7880,37.5592014,126.9808787
181596,선릉한티중앙점,서울 강남구 역삼로 420 (대치동),,37.5010007,127.0529074
181504,수원탑동점,경기 수원시 권선구 탑동로 5 1층 101호,070-8676-7567,37.2693083,126.9750664
181444,광주상무엘리체점,광주 서구 월드컵4강로197번길 9 1층,062-714-1724,35.1535363,126.8683465
180020,인천검단제일프라자점,인천 서구 이음5로 34 106호,032-713-4409,37.5938461,126.7114446
180016,화곡역점,서울 강서구 화곡로 154 청산빌딩 1층,070-8880-2622,37.5409947,126.8389434
180011,정선민둥산역점,강원특별자치도 정선군 남면 무릉1로 116 (무릉리),033-804-7979,37.2445419,128.7747438
179585,양산상북보건소점,경남 양산시 상북면 상북중앙로 404 1층,055-785-2568,35.4187954,129.0639194
179231,무안오룡푸르지오점,전남 무안군 일로읍 오룡번영1로 26 상가동 1층 105호(오룡 푸르지오 파르세나),061-281-6111,34.7980201,126.4768274
178444,인천약산초점,인천 남동구 백범로 374 1층,,37.4665924,126.7097844
177283,광주하남지식센터점,광주 광산구 하남산단6번로 57 1층,062-464-2253,35.2025342,126.8010917
177282,세종부강점,세종특별자치시 부강면 부강외천로 76,044-863-1133,36.5263973,127.3755744
177143,서초1동점,서울 서초구 효령로 314 108호,010-4084-1039,37.4853138,127.0185744
177025,인천연수영남점,인천 연수구 먼우금로252번길 27-1 지상1층 일부호(연수동),032-821-8582,37.4189720,126.6807218
176872,인천청라국제도시역점,인천 서구 에코로 65 제1층 제근생동 119호,032-721-7151,37.5522955,126.6177582
176563,중앙대광명병원점,경기 광명시 덕안로104번길 17 제지1층 제B130-1호(일직동),,37.4242146,126.8870632
176197,용인구성점,"경기 용인시 기흥구 용구대로 2398 (마북동, 연원마을벽산아파트)","상가동 212호(마북동, 연원마을 벽산아파트)",37.3003072,127.1072867
175323,여주현암점,경기 여주시 도예로 40 상가동 101호,031-886-7474,37.3066149,127.6416138
174924,광주시청역점,광주 서구 치평로 112 1층 108호,062-447-3371,35.1573008,126.8476474
173739,예천시장점,경북 예천군 예천읍 시장로 143 1층,054-988-9952,36.6581712,128.4593961
173085,담양백동주공점,전남 담양군 담양읍 미리산길 66 (지침리),061-382-4437,35.3142093,126.9863618
172928,안양종합운동장점,경기 안양시 동안구 평촌대로 371 (비산동),,37.4038426,126.9490530
172308,철원동송점,강원특별자치도 철원군 동송읍 금학로 230 (이평리),010-7218-1899,38.2090941,127.2177179
171542,개포구룡초교점,서울 강남구 개포로 265 1층 107호,02-577-1321,37.4809185,127.0530095
171472,대전신탄진점,대전 대덕구 대청로 18,,36.4514536,127.4305881
171182,홍성내포중앙점,충남 홍성군 홍북읍 청사로 152 107호,041-634-8880,36.6577080,126.6792930
170599,대전천동리더스시티점,대전 동구 안샘로 11,042-272-0277,36.3182526,127.4450306
169973,시흥배곧테크노밸리점,"경기 시흥시 서울대학로 59-69 1층 117,118,119호(배곧동, 배곧테크노밸리)",031-8042-6649,37.3586449,126.7103437
169821,충북제천강저점,충북 제천시 청풍호로10길 31 컴포즈커피,043-646-7008,37.1199023,128.1983740
168974,회기역점,서울 동대문구 이문로 42-1 (휘경동),,37.5912102,127.0570478
168942,마포경찰서점,서울 마포구 마포대로 180 101호 컴포즈커피,010-4257-0308,37.5501804,126.9555512
168646,전남함평점,전남 함평군 함평읍 중앙길 94,061-322-5692,35.0639491,126.5220013
168598,인천송도해양경찰청점,"인천 연수구 해돋이로 118 (송도동, 마린프라자)",032-833-0327,37.3923358,126.6495710
168385,오송2산단점,충북 청주시 흥덕구 오송읍 오송생명7로 148,043-238-3690,36.6205478,127.3163353
168283,사천사남점,경남 사천시 사남면 조동길 34 101호(더원타워),055-957-3553,35.0620367,128.0691046
168079,증산벚꽃길점,"서울 은평구 증산로 445 (신사동, 한독패션)",070-8211-2180,37.5959255,126.9146535
168078,문래에이스하이테크점,"서울 영등포구 경인로 775 (문래동3가, 에이스하이테크시티)",070-4153-7070,37.5147464,126.8975368
167824,대전경성큰마을점,"대전 서구 대덕대로162번길 23 1층 일부호(갈마동, 삼영빌딩)",,36.3469605,127.3769857
166588,성신여대점,서울 성북구 동소문로24길 9,02-929-4160,37.5932754,127.0186593
166396,전주인후점,전북특별자치도 전주시 덕진구 건산로 244,0708-211-0927,35.8344680,127.1639780
164383,가평조종점,경기 가평군 조종면 현창로38번길 5-1,,37.8187504,127.3486001
164294,마산성호푸르지오점,경남 창원시 마산합포구 천하장사로 62 (성호동),,35.2102128,128.5698198
163583,청주강서점,충북 청주시 흥덕구 강서로 118,043-237-2103,36.6247560,127.4296910
163565,서귀포섭지코지점,제주특별자치도 서귀포시 성산읍 섭지코지로26번길 6 (고성리),064-755-6600,33.4386156,126.9194029
163386,충남부여중앙점,충남 부여군 부여읍 석탑로 51 (구아리),010-7408-7649,36.2807597,126.9124214
163282,인천박촌역점,인천 계양구 장제로 1003,032-272-1005,37.5551014,126.7452503
162008,전주에코3블럭점,전북특별자치도 전주시 덕진구 세병로 92 113호,063-278-3999,35.8725528,127.1343046
161856,고흥녹동점,전남 고흥군 도양읍 비봉로 167 (봉암리),,34.5264483,127.1353734
161833,고흥녹동점,전남 고흥군 도양읍 비봉로 167 102호,,34.5264483,127.1353734
161385,인천더샵아르테점,인천 미추홀구 구월로8번길 18-62 근생1동 b1층 104호,070–7585-7235,37.4564623,126.6918117
161192,천안단대호수점,충남 천안시 동남구 천호지길 27 101호,041-554-8898,36.8360357,127.1732841
160857,김해안동공단사거리점,경남 김해시 김해대로2635번길 7 (안동),055-326-0316,35.2297808,128.9149172
160238,보라매롯데낙천대점,"서울 동작구 여의대방로10길 38 (신대방동, 보라매롯데낙천대아파트)",,37.4946050,126.9134810
160202,진천금호어울림점,충북 진천군 이월면 송림1길 19 상가동 104호,043-533-9298,36.9296866,127.4267069
160071,진천금호어울림점,충북 진천군 이월면 송림1길 19 상가동 104호,043-533-9298,36.9296866,127.4267069
159798,청주오송점,충북 청주시 흥덕구 오송읍 오송생명3로 65-15 (연제리),,36.6316688,127.3280530
159770,대구황금네거리점,대구 수성구 청수로24길 14 (두산동),,35.8393513,128.6211572
159754,천호역힐스테이트점,"서울 강동구 천호대로 1024 힐스테이트천호역에비뉴 119호,124호",,37.5375881,127.1254340
159753,일산식사점,경기 고양시 일산동구 위시티2로11번길 11 위시티휴먼빌 제1층 제근생 3동 135호,031-964-2024,37.6775419,126.8114411
159752,일산식사점,경기 고양시 일산동구 위시티2로11번길 11 위시티휴먼빌 제1층 제근생 3동 135호,031-964-2024,37.6775419,126.8114411
159462,수원구매탄시장점,경기 수원시 영통구 중부대로246번길 41 (매탄동),,37.2731475,127.0420038
159128,경산하양우미린점,경북 경산시 하양읍 서사도리4로 5 1층 102호,070-7717-7544,35.9190063,128.8082518
159123,홍대와우산점,서울 마포구 와우산로 151 (서교동),070-7807-9790,37.5546715,126.9297817
159122,홍대와우산점,서울 마포구 와우산로 151 (서교동),070-7807-9790,37.5546715,126.9297817
158577,양산웅상대로점,경남 양산시 웅상대로 1270 (삼호동),,35.4113932,129.1656598
158551,곤지암터미널점,경기 광주시 곤지암읍 곤지암로 49 (곤지암리),,37.3495814,127.3413153
158473,순천조례점,"전남 순천시 장선배기길 19 (조례동, 순천중앙신협 금당지점)",,34.9533673,127.5244617
158358,수유시장점,서울 강북구 도봉로 251 1층 일부 2칸 (수유동),02-987-1679,37.6309134,127.0240167
158019,밀양내이신촌점,경남 밀양시 창밀로 3566-2 (내이동),055-802-8803,35.5040997,128.7376955
157995,서울강서초점,서울 양천구 오목로 34 (신월동),02-6959-1559,37.5217021,126.8415039
157675,광명새마을시장점,경기 광명시 광명로 834 광명 루미에르 스위첸 상가 1층 123호,02-2060-7257,37.4738060,126.8522036
157480,파주맥금동버스종점점,경기 파주시 금물다리길 282,031-946-5551,37.7721009,126.7336353
157453,속초여고점,강원특별자치도 속초시 배움터길 4 (교동),033-635-2000,38.1989164,128.5713968
156624,대구이곡점,대구 달서구 이곡공원로 17 (이곡동),070-5057-0003,35.8555388,128.5094926
156300,대전낭월점,대전 동구 산내로 1333,042-283-0380,36.2823504,127.4667988
156252,제주외도점,제주특별자치도 제주시 일주서로 7298 1층,070-8691-2362,33.4922891,126.4266588
155854,상대원중앙점,경기 성남시 중원구 금상로 18 메디원빌딩 102호,031-745-8550,37.4375219,127.1597232
155516,경기광주초월도서관입구점,"경기 광주시 초월읍 경충대로 1254 (대쌍령리, 대쌍빌딩)",,37.3868395,127.2881154
155498,종로YMCA점,서울 종로구 종로 69 1층 109호,02-723-0857,37.5704027,126.9855543
155294,창원지귀시장점,경남 창원시 의창구 창이대로 199,055-606-7747,35.2449313,128.6591751
155037,당진시립중앙도서관점,충남 당진시 당진중앙2로 130 (읍내동),041-355-3646,36.8944931,126.6316685
154063,광명현대테라타워점,경기 광명시 오리로651번길 8 (하안동),,37.4591903,126.8757059
154062,광명현대테라타워점,경기 광명시 오리로651번길 8 (하안동),,37.4591903,126.8757059
154000,삼척항점,강원특별자치도 삼척시 이사부길 25 (정하동),033-575-4345,37.4389740,129.1923585
153421,영주풍기점,경북 영주시 풍기읍 기주로 44 (동부리),054-633-6200,36.8685612,128.5308487
153342,진해경화시장점,경남 창원시 진해구 충장로 357 109호,055-713-7931,35.1539584,128.6912275
153108,창원신화테크노밸리점,경남 창원시 의창구 평산로 23 (팔용동),,35.2469139,128.6136881
153064,광주수완대방대주점,광주 광산구 풍영로200번길 21 (장덕동),062-951-2100,35.1893993,126.8155750
153062,세종산울점,"세종특별자치시 산울2로 10 B동 B-107호(산울동, 산울마을6단지근린생활시설)",044-998-8096,36.5296874,127.2624442
152514,강남포이점,서울 강남구 개포로 223 101호 102호,070-8883-8000,37.4789525,127.0472695
152188,김포시청본관점,경기 김포시 사우중로 1 김포시청본관 지하1층,070-8834-9004,37.6153500,126.7155440
152185,강릉입암점,강원특별자치도 강릉시 월대산로 64,,37.7598094,128.9174505
152011,광주학동역점,광주 동구 남문로 694-26 (학동),062-412-4146,35.1327871,126.9296094
151918,인천학익삼거리점,인천 미추홀구 소성로 200,,37.4403280,126.6702683
151430,진천혁신도시점,충북 진천군 덕산읍 대하로 133,070-8874-2575,36.9029328,127.5341831
150764,순창터미널점,전북특별자치도 순창군 순창읍 장류로 355,063-652-6548,35.3767662,127.1412106
150744,응암시장교차로점,"서울 은평구 응암로 247 (응암동, 외환은행)",,37.5942306,126.9178721
150486,광교더샵레이크시티점,경기 수원시 영통구 광교호수공원로 20,031-548-2587,37.2710306,127.0601460
150432,세종종촌점,세종특별자치시 도움1로 106,,36.5028160,127.2481238
150239,양평역이노플렉스점,"서울 영등포구 양산로 57-5 (양평동3가, 양평동 이노플렉스)",02-2679-7774,37.5255956,126.8893622
150209,안산선부광장점,경기 안산시 단원구 선부광장1로 56,031-405-5007,37.3366090,126.8107170
149768,익산덕기점,전북특별자치도 익산시 무왕로 1730 (덕기동),063-831-1104,35.9798389,127.0405589
149602,광주금호종원점,광주 서구 화개1로79번길 7 1층(금호동) 112호,062-412-3371,35.1309501,126.8541596
148827,고양삼송테크노벨리점,경기 고양시 덕양구 통일로 140 A동 154호,02-355-6680,37.6491289,126.9021659
148822,천안쌍용대우타워점,충남 천안시 서북구 봉명로 24 101호,041-415-2214,36.8074424,127.1310698
148789,성남의료원점,경기 성남시 수정구 수정로 170 (신흥동),031-751-7779,37.4427840,127.1388513
148370,양재시민의숲에브리데이점,서울 서초구 동산로2길 16 (양재동),,37.4691407,127.0416413
148210,인천수봉공원점,인천 미추홀구 수봉로 150-1 (주안동),032-724-9524,37.4575747,126.6662857
147726,남해중앙점,경남 남해군 남해읍 화전로78번길 5 (북변리),055-864-3517,34.8382988,127.8947868
147692,의정부고산점,경기 의정부시 세석로 24 109,070-7635-6145,37.7296549,127.1094900
147642,구미산동점,경북 구미시 산동읍 신당2로1길 12 1동 1층 106호,054-715-3507,36.1571661,128.4322897
146977,강북번동점,서울 강북구 오현로34길 12,,37.6286079,127.0400605
146742,제주외도부영점,제주특별자치도 제주시 우정로11길 3 (외도일동),,33.4879415,126.4313903
146154,고령성산점,경북 고령군 대가야읍 우륵로 4 (헌문리),,35.7301965,128.2689010
146020,역삼개나리점,서울 강남구 언주로 405 (역삼동),,37.4991858,127.0439712
145393,평촌디지털엠파이어점,경기 안양시 동안구 흥안대로427번길 16 1층 118호,,37.3930060,126.9737671
145347,의정부행복로점,경기 의정부시 행복로 30 (의정부동),,37.7412442,127.0498255
145279,부산신항에비뉴점,경남 창원시 진해구 신항4로 47-14 1층 110호,055-715-3353,35.0877283,128.8165999
145097,대전둔산초점,대전 서구 둔산남로 42 (둔산동),042-472-1401,36.3488495,127.3821879
144811,화성드림파크점,경기 화성시 우정읍 기아자동차로 237 (매향리),031-358-9596,37.0499388,126.7666787
144623,광주풍암2지구점,광주 서구 송풍로17번길 5 062-716-2236,,35.1186992,126.8667120
144297,인천우림라이온스밸리점,인천 부평구 부평대로 283 우림라이온스밸리 B동 113호,070-8277-4660,37.5178209,126.7200781
144127,진주더퀸즈웰가점,경남 진주시 새평거로 25 상가 1동 111호,055-920-2229,35.1666876,128.0519226
143215,수원남수동한옥마을점,경기 수원시 팔달구 창룡대로 66-1 (남수동),031-305-8200,37.2844455,127.0223115
142479,광주첨단비즈타워점,광주 북구 첨단연신로 45 1층 A-108호,062-716-0602,35.2014767,126.8634739
142242,인천송도이편한세상점,인천 연수구 랜드마크로 113 이편한세상송도 후문상가 113호,070-7661-1113,37.4114562,126.6170577
142190,대구현풍중리점,대구 달성군 현풍읍 테크노상업로 26 (중리),,35.6913670,128.4537050
141536,보라매중앙점,서울 동작구 여의대방로24길 24 (신대방동),,37.4978787,126.9215583
141270,오창1산업단지점,충북 청주시 청원구 오창읍 과학산업3로 202-7 104호,070-7585-0280,36.7070616,127.4293397
141247,화성팔탄점,경기 화성시 팔탄면 푸른들판로 701 (구장리),,37.1701326,126.8923679
141203,건대양꼬치거리점,서울 광진구 동일로18길 62,02-6052-4856,37.5390210,127.0660211
141202,제주화북뉴월드마트점,제주특별자치도 제주시 일주동로 233 (화북일동),,33.5197087,126.5702770
141134,미사스마트밸리점,경기 하남시 미사강변서로 16 RB158호,,37.5517709,127.1846913
140954,굽은다리역사점,"서울 강동구 양재대로 1574 550-103호(명일동, 굽은다리역)",,37.5459185,127.1433489
140662,대구달성고점,대구 서구 달구벌대로 1727 (내당동),070-7576-1273,35.8569760,128.5541411
140500,여수문수광장점,전남 여수시 여문2로 73 코아상가동 1-11호,061-810-0711,34.7546608,127.6929933
139704,동작남성점,서울 동작구 솔밭로 103 (사당동),,37.4856103,126.9681919
139703,용두동아제약점,"서울 동대문구 무학로23길 8 (용두동, 보금빌딩)",02-921-3901,37.5726857,127.0300628
139116,인천검단법조타운점,인천 서구 이음3로 145 105호,,37.5888543,126.7080419
139065,원주원주고점,강원특별자치도 원주시 치악로 1754-2 (개운동),,37.3392565,127.9563840
138971,북수원자이렉스자이점,경기 수원시 장안구 장안로 271 1동 101호,031-271-8311,37.3069617,126.9892966
138785,광주임동제니스점,광주 북구 유동길 46 202동 1-113호(임동),070-4419-0777,35.1574480,126.9030616
137520,인천학산사거리점,인천 미추홀구 매소홀로 355,032-299-8076,37.4414110,126.6620204
137500,인천오류왕길점,인천 서구 단봉로139번길 3-5 (오류동),070-7856-9994,37.5971853,126.6370869
137193,광주전대풍경채점,광주 북구 당뫼로 62 (중흥동),062-513-1070,35.1716686,126.9154271
137095,포항이인지구점,경북 포항시 북구 흥해읍 이인로 100 (이인리),,36.0717903,129.3331708
137079,김천부곡점,경북 김천시 부곡길 201 1층 105호,,36.1258358,128.0993120
136915,수원산드래미점,"경기 수원시 영통구 인계로 264 (매탄동, 매탄삼성내과의원)",070-7755-8755,37.2637050,127.0463546
136315,대전노은역광장점,"대전 유성구 노은로 178 (지족동, 금강프라자)",042-824-0315,36.3756014,127.3185157
136222,당진기지시점,충남 당진시 송악읍 반촌로 102 태영빌딩 102호,041-970-5846,36.9041243,126.6947491
135651,세종도담점,세종특별자치시 보듬3로 6 상가2동 1층 106호,044-867-9080,36.5128445,127.2589409
135645,대전둔곡점,대전 유성구 과학지원4길 13 (둔곡동),070-4349-6243,36.4532533,127.3606119
135274,동의병원점,부산 부산진구 양정로 63 D동 2층,,35.1707921,129.0773828
135103,광주컨벤션센터점,광주 서구 마륵로 104 (치평동),062-716-7898,35.1457945,126.8428458
134816,인천국세청점,인천 남동구 미래로 6 마커스 오피스텔 상가 1층,070-5100-5554,37.4506397,126.7050731
134815,창원신사로점,경남 창원시 성산구 신사로35번길 2 지하1층 지하2호,055-264-3286,35.2256262,128.6896085
134066,강서등촌중앙점,서울 강서구 공항대로45길 44 105호,02-2658-2686,37.5568048,126.8558121
133796,창원남산서상점,경남 창원시 의창구 남산로 99 (서상동),055-292-5048,35.2549028,128.6192614
133235,상명대동숭캠퍼스소극장점,"서울 종로구 동숭길 133 (동숭동, 상명대학교예술디자인센터)",070-8816-0008,37.5833842,127.0027569
132770,대구범어W점,"대구 수성구 달구벌대로 2436 (범어동, 수성 범어W)",053-746-2435,35.8578762,128.6280431
132721,광주동구청점,"광주 동구 제봉로82번길 3 (서석동, 굴마을 생선구이)",062-413-5103,35.1461126,126.9222277
132713,서울역부양빌딩점,"서울 용산구 한강대로 397 (동자동, 부양빌딩)",,37.5537979,126.9723464
131815,대전관저마치광장점,대전 서구 구봉로 137,042-710-0071,36.2967072,127.3381807
131689,수원팔달경찰서점,경기 수원시 팔달구 세지로 395 (우만동),031-257-4521,37.2851597,127.0284991
130771,광주큰별초등학교점,"광주 광산구 수등로123번길 21 (신가동, 수완지구 호반베르디움 1차 아파트)",062-716-4206,35.1846292,126.8213818
130194,완주봉동둔산점,전북특별자치도 완주군 봉동읍 둔산3로 18 (둔산리),070-7766-7715,35.9569611,127.1245363
129920,단국대천안캠퍼스단우홀점,충남 천안시 동남구 단대로 119 단우홀내,,36.8373833,127.1685007
129915,명동길점,서울 중구 명동7길 18 (명동1가),02-771-7772,37.5645463,126.9844575
129909,단국대죽전캠퍼스웅비홀점,"경기 용인시 기흥구 마북로247번길 109 (마북동, 단국대학교기숙사)",,37.3168521,127.1267412
129818,인천구월아시아드점,인천 남동구 선수촌공원로17번길 1 구월테크노벨리 110호,032-227-8270,37.4402282,126.7096475
129740,동탄숲속마을점,경기 화성시 동탄지성로 145 (능동),,37.2096634,127.0593959
129733,미사하남고점,"경기 하남시 미사강변남로 33 (망월동, 황금프라자)",070-8648-3075,37.5599159,127.1855472
129720,분당서현로데오점,"경기 성남시 분당구 분당로53번길 3 (서현동, 농업협동조합중앙회)",031-697-5482,37.3835128,127.1209106
129455,둔촌동역사1호점,서울 강동구 양재대로 1355 둔촌동역사 554-104호,02-477-2335,37.5274004,127.1356320
129410,진영여래점,경남 김해시 진영읍 여래로20번길 6,055-724-2588,35.3046470,128.7340903
129209,남한산성입구역역사점,경기 성남시 수정구 산성대로 445 남한산성입구역 지하 822-203호,,37.4516134,127.1594592
129131,포항용흥점점,경북 포항시 북구 대안길 58 150동 107호,054-248-5453,36.0420860,129.3519707
128287,서귀포여고점,"제주특별자치도 서귀포시 태평로 95 (호근동, 서귀포의 아침)",,33.2450009,126.5338272
128071,대구달서sk뷰점,대구 달서구 용산로 27 (본리동),053-525-3777,35.8398158,128.5303867
126784,거제고현터미널점,경남 거제시 서문로 73 102호,055-736-2236,34.8901334,128.6235644
126780,진해용원어시장점,경남 창원시 진해구 용원동로221번길 4-1 (용원동),055-715-5420,35.0928537,128.8189925
126779,인천구월여중점,"인천 남동구 예술로174번길 46 1층 104호(구월동, 인스테이션)",070-7808-3247,37.4494545,126.7037339
126645,경주보문점,경북 경주시 보문로 549 110호,054-745-3010,35.8352908,129.2847708
126525,대구파동점,"대구 수성구 파동로 190 101동 103호(파동, 수성더팰리스푸르지오더샵)",053-201-0215,35.8205988,128.6131859
126480,도곡매봉점,"서울 강남구 남부순환로 2738 (도곡동, 상일빌딩)",,37.4859749,127.0454328
126215,천호2동점,"서울 강동구 올림픽로 686 (천호동, 오송빌딩)",,37.5424824,127.1251105
126145,대치학원가중앙점,서울 강남구 도곡로78길 6 101-102호,02-6954-0991,37.4977374,127.0589630
126138,장한평역사점,서울 동대문구 천호대로 지하 405 역사 지하2층,,37.5620161,127.0641904
126131,인천마전중학교점,"인천 서구 완정로92번길 1 (마전동, 검단힐스테이트아파트 상가)",070-4647-0726,37.5990625,126.6650420
126084,대구강창역점,대구 달서구 호산로27길 2 (파호동),,35.8522071,128.4775656
125901,울산왕생이길점,울산 남구 왕생로 61 (달동),052-256-3476,35.5389587,129.3309397
125652,광주소촌힐스점,광주 광산구 어등대로647번북길 8 501 근린생활시설동 1,070-4241-8228,35.1462632,126.7929205
124694,안산KTD점,경기 안산시 단원구 산단로 14,,37.2970443,126.7852478
124693,오산원동롯데캐슬점,"경기 오산시 원당로 35 (원동, 오산롯데캐슬스카이파크)",010-7734-9149,37.1410891,127.0933838
124462,진해남원로타리점,경남 창원시 진해구 중원로 20-1,055-719-3388,35.1458688,128.6594439
124423,안양1번가점,경기 안양시 만안구 만안로223번길 7 (안양동),,37.4004012,126.9223877
123862,대전갈마점,대전 서구 갈마중로 4 (갈마동),042-522-2265,36.3474389,127.3695884
123718,안성공도점,경기 안성시 공도읍 서동대로 4079 주은풍림아파트 제상가동 130호,,36.9991703,127.1589156
123006,수원화서블루밍점,경기 수원시 팔달구 화양로35번길 12 101호,031-255-3194,37.2810256,126.9962099
122789,마산육호대로점,경남 창원시 마산회원구 회원동5길 1 101,055-242-8909,35.2167435,128.5750789
122783,고양관산고골점,경기 고양시 덕양구 고골길 5 2,031-966-0723,37.7089946,126.8550944
122373,인천부평역이편한시티점,인천 부평구 경원대로1344번길 34 1층 113호,032-233-0321,37.4902905,126.7191112
121949,여수쌍봉사거리점,전남 여수시 시청로 43 1층 에이호,061-686-4914,34.7655981,127.6624520
120967,강서대점,서울 강서구 까치산로 127 (화곡동),02-2602-9502,37.5491802,126.8507583
120744,파주문발점,경기 파주시 지목로 68 (문발동),031-937-8588,37.7258174,126.6985246
120357,충주교통대점,충북 충주시 대소원면 대학로 27 (검단리),070-8657-0615,36.9653514,127.8710168
120352,압구정스퀘어점,서울 강남구 압구정로34길 11,02-512-9888,37.5274022,127.0309965
120336,울산언양읍성점,울산 울주군 언양읍 북문6길 5 (동부리),052-254-8331,35.5701574,129.1263151
120134,대전충남대병원점,대전 중구 계룡로920번길 32 (대사동),042-242-8884,36.3189232,127.4150871
119972,동대입구역점,서울 중구 동호로24길 27 (장충동2가),,37.5604139,127.0053199
119964,우장산숲아이파크점,"서울 강서구 강서로 200 1층 좌측호(화곡동, 섬유유통노련회관)",070-7804-3737,37.5441840,126.8386330
118892,장유한양에스쇼핑점,경남 김해시 장유로 270 1층 113호,055-820-7711,35.2008015,128.8122606
118824,문발IC점,경기 파주시 교하로 849,031-945-8899,37.7232837,126.7011546
118739,옥정프라자점,경기 양주시 옥정서로 217 105호,031-858-7233,37.8325252,127.0883995
118730,압구정스마일점,서울 강남구 압구정로 334 지상1층 104호,02-514-3888,37.5281863,127.0380787
117628,대전선사유적지점,대전 서구 청사서로 36 (월평동),042-488-1982,36.3610366,127.3769278
117597,송파풍납점,서울 송파구 토성로 65,02-482-1230,37.5289127,127.1173696
117594,서울외대점,서울 동대문구 휘경로 12 (이문동),,37.5958552,127.0612877
117494,삼척임원항점,"강원특별자치도 삼척시 원덕읍 임원중앙로 39-1 (임원리, 여정식당)",,37.2301307,129.3445978
117461,김해안동푸르지오점,경남 김해시 안동길 31 109동 106호 컴포즈커피 김해안동푸르지오점,055-724-3810,35.2379759,128.9133350
117432,전북대점,전북특별자치도 전주시 덕진구 권삼득로 315,,35.8437363,127.1274958
117393,선유중앙점,서울 영등포구 선유로49길 22 (양평동4가),,37.5366829,126.8953178
116949,대구세천점,대구 달성군 다사읍 세천남로 8 (세천리),053-583-7747,35.8735298,128.4771666
116757,창원중앙오거리점,경남 창원시 성산구 원이대로580번길 24-4 (중앙동),055-266-3799,35.2267378,128.6770914
115948,대전월평점,"대전 서구 월평로 64 1층 일부호(월평동, 구성빌딩)",,36.3559618,127.3641666
115940,영광군청점,전남 영광군 영광읍 중앙로 180,061-945-9885,35.2749478,126.5120146
115898,탕정유니콘101점,"충남 아산시 탕정면 용머리길 40 유니콘101 2동 114,123B호",041-427-0100,36.7952345,127.0512679
115873,용산원효로점,서울 용산구 원효로41길 23 (원효로3가),070-8670-8822,37.5348179,126.9587862
115522,과천상상자이점,"경기 과천시 과천대로7길 65 (갈현동, 과천상상자이타워)",070-4647-4575,37.4166770,126.9758176
115151,제주저지점,제주특별자치도 제주시 한경면 녹차분재로 525 (저지리),,33.3186481,126.2686439
115085,인천송도스마트스퀘어점,인천 연수구 송도미래로11번길 27 B동 124호,032-813-0124,37.3710904,126.6494931
114985,창원의창구청점,"경남 창원시 의창구 도계로4번길 27 (도계동, 동영빌라)",055-603-3312,35.2574151,128.6349453
114879,수원조원점,경기 수원시 장안구 조원로 69 (조원동),031-255-1544,37.2995648,127.0172783
114167,용인김량장동점,경기 용인시 처인구 금령로85번길 1 (김량장동),031-328-8289,37.2354957,127.2057038
114163,원주남원주초점,강원특별자치도 원주시 늘품로 33,033-765-2255,37.3227379,127.9500987
113958,양재이마트점,"서울 서초구 매헌로 16 이브랜드 리빙관 ,지하1층 102호",02-2155-0118,37.4631951,127.0366233
113686,인천검단예미지트리플에듀점,인천 서구 서로4로 89 검단신도시예미지트리플에듀 상가 110호,032-564-8298,37.6008108,126.7131806
113288,부천대점,경기 부천시 원미구 부일로445번길 45 (심곡동),032-655-1244,37.4883551,126.7794141
112585,상주경북대점,"경북 상주시 경상대로 2560-13 (가장동, 동이빌딩)",054-536-0606,36.3777588,128.1486389
112431,하계타운점,서울 노원구 한글비석로1길 67,070-4151-3500,37.6406771,127.0702506
112331,인천대청도점,인천 옹진군 대청면 대청남로 4 (대청리),,37.8245045,124.7161076
111947,강진중앙점,전남 강진군 강진읍 중앙로 120 (남성리),,34.6399584,126.7698793
111189,인천정서진점,인천 서구 정서진5로 37 상가 104호,032-563-0076,37.5622340,126.6186828
111088,부천송내우성점,경기 부천시 소사구 중동로49번길 44 1층 6호,070-4099-1282,37.4852665,126.7617203
111029,부천팰리스카운티점,경기 부천시 원미구 중동로 100 아이파크상가 108호,070-4252-2024,37.4887472,126.7657959
110567,통영미수점점,경남 통영시 미수해안로 42 101호,055-725-8007,34.8297266,128.4066859
110523,광주쌍촌명지점,광주 서구 상무대로868번길 30-1 (쌍촌동),062-381-2233,35.1474331,126.8576589
109707,수유역점,서울 강북구 오패산로 417 1층 일부(번동),02-998-4160,37.6376263,127.0258528
109218,청주산남점,충북 청주시 서원구 산남로 68 센타프라자 109호,043-288-6186,36.6113566,127.4665266
109212,수원능실마을점,경기 수원시 권선구 호매실로165번길 71 110동 109호,031-297-8735,37.2583807,126.9532118
109186,인천부평하이마트점,인천 부평구 길주로 512 1층 컴포즈커피,070-4419-2419,37.5072862,126.7189538
107716,중계중앙점,서울 노원구 덕릉로73길 18 태인빌딩1층 104호,02-935-2407,37.6521996,127.0723320
107715,이기대입구점,부산 남구 이기대공원로 4 101호,051-791-0503,35.1241507,129.1130248
107714,인천구월한화포레나점,인천 남동구 석산로 202 (구월동),032-466-0507,37.4605629,126.7143833
107404,대전건양대병원점,대전 서구 관저동로 170 124호,042-543-6093,36.3073063,127.3411595
107348,수원송죽점,경기 수원시 장안구 경수대로973번길 18 (송죽동),,37.3037110,127.0041214
106185,청주지웰시티점,충북 청주시 흥덕구 대농로 49 043-900-6020,,36.6421468,127.4280269
106095,일원맛의거리점,서울 강남구 양재대로35길 6 (일원동),02-459-9618,37.4900895,127.0836949
105560,대구강촌우방점,대구 동구 화랑로80길 8 1층 102호,053-249-7366,35.8764407,128.6657885
105529,대전용문역점,대전 서구 계룡로 632 102호,070-8657-3935,36.3387897,127.3920712
105528,상동라일락점,경기 부천시 도약로 37-1 (상동),032-323-0918,37.5125276,126.7537286
104683,대구국우점,대구 북구 학남로 97 (국우동),053-311-3355,35.9440003,128.5697176
104411,광주상무우정청점,광주 서구 계수로 51 (쌍촌동),062-716-7708,35.1605308,126.8563047
104019,대전미건테크노월드점,"대전 유성구 테크노2로 199 (용산동, 미건테크노월드)",042-933-9843,36.4232397,127.4073257
103984,삼양솔매점,"서울 강북구 솔매로28길 1 171, 172호",,37.6399301,127.0642714
103973,중계브라운스톤점,"서울 노원구 동일로203가길 29 171, 172호",02-977-3412,37.6399301,127.0642714
103589,용인물푸레마을점,"경기 용인시 기흥구 구성3로28번길 20 가나프라자 2차 제1층 102호,103호",070-4252-5252,37.2952037,127.1521820
103582,여수죽림부영점,전남 여수시 소라면 죽림로 10 상가동 105호(죽림부영1차),061-810-3686,34.7622427,127.6414487
103267,양주고암점,경기 양주시 고암길 306-77 102호,,37.8367555,127.0685865
103266,양주고암점,경기 양주시 고암길 306-77 102호,,37.8367555,127.0685865
103168,고양관산점,경기 고양시 덕양구 통일로 768 1,070-8657-3832,37.6879205,126.8652089
103099,고척중앙점,서울 구로구 고척로27길 111 (개봉동),02-2038-8600,37.5066646,126.8451008
102962,인천완정사거리점,인천 서구 원당대로 673 태한빌딩103호,070-4335-2336,37.5939661,126.6760098
102843,철산우성점,경기 광명시 시청로 139 케이비에스우성아파트 제14동 제111호,,37.4892021,126.8682281
102682,창원역점,경남 창원시 의창구 의창대로62번길 5,055-719-0486,35.2566175,128.6079810
102209,대전송촌공원점,대전 대덕구 동춘당로94번길 11-7 광혜빌딩 1층,,36.3658722,127.4396741
102206,광주일곡중학교점,"광주 북구 일곡마을로 225-1 상가동 1층 111, 112호",062-571-2588,35.2105509,126.8985206
101967,김해생림나전점,경남 김해시 생림면 인제로 722 (나전리),070-4647-1243,35.2886369,128.8847080
101963,광주광주여대점,광주 광산구 용아로 235 상가동 1층 101호(산정동),062-955-5004,35.1644045,126.8009027
101898,파주문산당동점,경기 파주시 문산읍 방촌로 1719-62 와우노블시티 1층,,37.8672708,126.7837441
101755,건대스타시티몰점,서울 광진구 능동로 110 더샵스타시티몰 영존 B213호,,37.5406610,127.0714121
101663,시흥은계우미린점,"경기 시흥시 은계중앙로 115 상가동 1층 102호(은행동, 시흥은계우미린더퍼스트)",031-8042-6787,37.4409822,126.8033335
101168,울산시청점,울산 남구 돋질로81번길 9-1,0504-0801-0085,35.5394318,129.3141385
101160,하계을지병원점,서울 노원구 공릉로59나길 48-4 (하계동),02-2088-6457,37.6353643,127.0700686
101157,인천삼산초등학교점,인천 부평구 후정동로 28 상가 5호,070-8240-3177,37.5197590,126.7381780
100701,안산반월역점,경기 안산시 상록구 건건로 119-5 작악빌딩 1층 일부(건건동),,37.3114270,126.9043804
100367,평촌역점,경기 안양시 동안구 관평로182번길 53 1층107호,,37.3942440,126.9630802
100360,시흥정왕본동점,경기 시흥시 정왕천로428번길 2 1층 일부호,031-498-1021,37.3452915,126.7532362
100187,신용산래미안점,서울 용산구 한강대로 95 109,070-7537-2984,37.5290927,126.9668857
100143,화서역브리시엘점,경기 수원시 장안구 수성로157번길 60 144호,070-7624-2979,37.2880163,126.9903743
100130,의정부회룡점,경기 의정부시 평화로 365 (호원동),031-877-6580,37.7244778,127.0479879
100122,가양초점,"서울 강서구 양천로59길 46 대일빌딩, 101호",02-2668-0507,37.5610449,126.8600427
100108,인천효성제일풍경채점,인천 계양구 효서로112번길 2 (효성동),070-8844-1269,37.5276724,126.7080274
99117,둔내웰리힐리점,강원특별자치도 횡성군 둔내면 고원로 251 C동,,37.5063268,128.2270475
99081,서대구화성파크점,대구 서구 서대구로29길 30 7208동 1층 7호,053-525-1734,35.8703015,128.5471651
98974,울산터미널점,울산 남구 달삼로72번길 13 (달동),052-266-5592,35.5352822,129.3375110
98973,시흥거모점,경기 시흥시 도일로135번길 4,031-493-0234,37.3425827,126.7846240
98690,파주금촌점,경기 파주시 문화로 97 제1호(파주시 문화로 97),031-935-6306,37.7628326,126.7747139
98504,광주선교지구점,"광주 동구 선교로 38-30 111동 105호(선교동, 선교1차우방아이유쉘아파트)",062-225-5565,35.0892486,126.9515350
98494,원주시청로점,"강원특별자치도 원주시 시청로 76 (무실동, 에이스주차타워2)",,37.3368325,127.9267271
98487,마산완월서광점,경남 창원시 마산합포구 고운로 168 서광아파트상가 101호,055-222-5048,35.1970398,128.5624924
98348,대전관저원앙점,대전 서구 관저북로 71 원앙쇼핑 105호,0502-1921-2358,36.3083022,127.3365729
98312,강원양구점,강원특별자치도 양구군 양구읍 중앙길 14,033-938-9876,38.1068501,127.9891456
97928,상왕십리역점,서울 성동구 왕십리로 410 센트라스 상가 L동 104호,070-7755-0221,37.5665508,127.0247865
97642,위례우성어반점,"서울 송파구 위례송파로 77 107호,108호",02-405-6157,37.4854429,127.1424530
97172,인천송도해온프라자점,인천 연수구 컨벤시아대로130번길 18 해온프라자 102호,070-8657-3123,37.3932134,126.6445977
96975,광주양동시장점,광주 서구 천변좌로254번길 2 (양동),062-363-8468,35.1533731,126.9034123
96852,청주봉명점,충북 청주시 흥덕구 덕암로 28 (봉명동),070-4334-4777,36.6528787,127.4572156
96812,인천용현자이타워점,인천 미추홀구 독배로 383 112호,070-4833-2674,37.4543217,126.6482540
95806,울진후포점,경북 울진군 후포면 울진대게로 16-3 (삼율리),054-788-7778,36.6775618,129.4428767
94748,시흥금천점,서울 금천구 시흥대로39길 11 102호,02-805-2371,37.4469404,126.9025629
94518,은평서북병원점,서울 은평구 갈현로11길 12 (구산동),02-2138-0999,37.6054712,126.9092476
94491,순화점,서울 중구 칠패로 27 B동 109호(1층),,37.5599339,126.9719947
94333,아산풍기점,충남 아산시 어의정로 184 아산풍기이지더원1차아파트 제상가4동 제지1층 제비107호,041-424-2519,36.7744110,127.0176769
94112,대전은하수네거리점,대전 서구 둔산로51번길 16 (둔산동),042-710-4377,36.3518820,127.3801328
93917,성남신흥역점,경기 성남시 수정구 산성대로 267 1층 123호,031-602-4023,37.4413240,127.1464467
93627,경주용황점,경북 경주시 용황로10길 43 상가 115호,070-7636-8989,35.8871107,129.2290805
93588,서울경희대점,서울 동대문구 경희대로 9-1 (회기동),02-966-1998,37.5925613,127.0522303
93573,강릉솔올점,강원특별자치도 강릉시 경포로 42,033-823-3024,37.7714380,128.8789974
93318,인천부평그랑힐스점,인천 부평구 청중로 47 (청천동),,37.5178426,126.7023925
93182,안양힐스테이트비산점,경기 안양시 동안구 임곡로 70 1층 102-3,031-444-9049,37.4054665,126.9343652
92987,천안쌍용이마트점,충남 천안시 서북구 충무로 205,,36.7966603,127.1288032
92603,당진현대제철점,"충남 당진시 송산면 가곡로 150-24 (동곡리, 현대에비뉴)",,36.9720389,126.7014566
92482,동탄에듀몰점,"경기 화성시 동탄기흥로353번길 99-7 1층 107호(오산동, 안강프라이빗에듀)",031-372-9599,37.1877508,127.0868100
92481,강동고덕비즈밸리점,"서울 강동구 고덕비즈밸리로 26 1층 A-127호(고덕동, 강동U1센터)",,37.5654433,127.1602745
91819,충북괴산터미널점,충북 괴산군 괴산읍 읍내로10길 3,043-833-7787,36.8088962,127.7941254
91690,함안호암점,경남 함안군 칠원읍 호암길 22 더노블리지 105호,055-586-9333,35.2752566,128.5210964
91591,마곡수명산파크점,서울 강서구 강서로47길 113 성호빌딩 106호,02-2666-8781,37.5532319,126.8298785
91387,광주오치주공점,광주 북구 서하로194번길 3 (오치동),062-716-1303,35.1867938,126.9018696
91167,신사세로수길점,서울 강남구 논현로175길 58 1층 101호(신사동),02-6406-4845,37.5244617,127.0241788
90597,안산문화광장점,경기 안산시 단원구 광덕3로 167-18,031-481-9999,37.3141486,126.8316874
90474,조치원신흥점,세종특별자치시 조치원읍 이화로 26 상가동 10호,070-4006-0695,36.5926423,127.2877613
90421,방화방신점,"서울 강서구 초원로13길 58 (방화동, 센터하임)",02-2666-2371,37.5697824,126.8130671
90404,창동어울림점,"서울 도봉구 해등로16길 26 타임프라자 110호,111호",070-7755-5646,37.6556381,127.0414985
90401,동해묵호점,강원특별자치도 동해시 일출로 109,033-535-7008,37.5528542,129.1190815
90292,인천가재울역트루엘에코시티점,"인천 서구 열우물로240번길 20 (가좌동, 가재울역트루엘에코시티아파트)",032-577-7663,37.4851754,126.6873500
89925,덕소강변중앙점,경기 남양주시 와부읍 덕소로116번길 19-2 1층 102호,070-8250-9851,37.5846848,127.2102561
89859,수원센트럴프라자점,경기 수원시 팔달구 수원천로210번길 19 (인계동),,37.2729491,127.0192867
89823,광주남구체육관점,광주 남구 화산로 115 진아리채 상가동 102호,062-710-6664,35.1152654,126.9094553
85662,화성안녕점,"경기 화성시 장조2로 12 1층 110호, 111호",031-238-0113,37.2040933,126.9993994
85326,경기광주초월점,"경기 광주시 초월읍 경충대로1127번길 58 (쌍동리, 광주초월역한라비발디)",031-761-1147,37.3773706,127.2881004
85285,수원센트럴아이파크자이점,경기 수원시 팔달구 인계로 21 (인계동),010-6224-4406,37.2722817,127.0212781
85276,동대문두타몰점,"서울 중구 장충단로 275 (을지로6가, 두산타워빌딩)",,37.5688912,127.0087831
85243,광주각화더샵점,광주 북구 동문대로249번길 12 301동 A103호,062-269-4000,35.1851454,126.9288819
84279,안양귀인점,"경기 안양시 동안구 귀인로 198 (평촌동, 베스트타운)",010-2076-1578,37.3854615,126.9611624
84115,이천로데오점,"경기 이천시 영창로 196 1동 104호(창전동, 이천축협창전동지점)",010-7937-6020,37.2809547,127.4443300
83928,계룡대실점,"충남 계룡시 두마면 대실남북3길 11 104, 105호",042-841-7008,36.2664590,127.2585732
83471,천안병천점,"충남 천안시 동남구 병천면 아우내순대길 18 (병천리, 아우내한방순대)",041-555-8060,36.7593717,127.2979990
83470,나주곰탕거리점,전남 나주시 나주로 144 (중앙동),,35.0315888,126.7170728
83149,김포양촌점,경기 김포시 양촌읍 황금로 117 이젠몰 다동 1층 118호,070-8882-2979,37.6177843,126.6211022
83062,다산메트로3단지점,경기 남양주시 다산중앙로123번길 47 다산메트로3단지아파트 근린생활시설 101호,070-7808-6961,37.6222431,127.1481816
83059,인천송도센트럴파크점,인천 연수구 인천타워대로180번길 11 더샵 송도센트럴파크 3차 상가 A동112호,070-7685-8991,37.3892451,126.6386933
82013,청주오창롯데캐슬점,충북 청주시 청원구 오창읍 중부로 760 오피스텔상가 201동 101호,,36.7105539,127.4366850
81954,동대문역사공원역점,서울 중구 을지로43길 34 1층 2호,070-8806-7777,37.5676064,127.0076187
81901,강현농협하나로마트점,강원특별자치도 양양군 강현면 물치천로 14 강현농협협동조합 내,033-671-5577,38.1546243,128.6060648
81710,만리시장점,서울 용산구 효창원로 265-4 (서계동),,37.5508737,126.9636311
81694,부천춘의디아크원점,"경기 부천시 길주로411번길 20 1층 106호(춘의동, 춘의디아크원)",032-678-7524,37.5048283,126.7880543
81688,인천주안제일점,인천 미추홀구 제일로 20 (도화동),070-8244-1515,37.4587453,126.6724674
81590,사천정동점,경남 사천시 사천읍 진삼로 1387 101호,055-786-7866,35.0756243,128.0837017
81464,창원남양위드파크점,경남 창원시 성산구 가양로 97 위드파크아파트 상가 103호,055-266-6663,35.2091721,128.7038478
81279,동대문두타몰점,"서울 중구 장충단로 275 (을지로6가, 두산타워빌딩)",,37.5688912,127.0087831
80500,구로거리공원점,서울 구로구 공원로 21 1층 103호,070-8703-3528,37.4989304,126.8913632
80385,충북제천역점,충북 제천시 의림대로2길 3 (화산동),043-645-4203,37.1288195,128.2061826
80377,의정부신곡건영점,경기 의정부시 능곡로26번길 28 건영아파트상가 104호 105호,,37.7400432,127.0617242
80322,김해삼계에브리데이점,경남 김해시 가야로22번길 3-14 (삼계동),055-338-3106,35.2693477,128.8636669
80122,평택팽성점,경기 평택시 팽성읍 동서촌로 73 (객사리),,36.9647841,127.0601904
80094,구리배탈고개점,경기 구리시 동구릉로 108-1,031-588-2712,37.6091895,127.1359730
79982,경성대제1학생회관점,부산 남구 수영로 309,010-9456-7553,35.1422457,129.0969338
79959,광주광천중해점,광주 서구 내방로 415 광천중해마루힐주상복합 상가동 110호,070-4175-2209,35.1589986,126.8845409
79934,대구도남점,대구 북구 도남중앙로7길 20-10 107호,053-716-2294,35.9519760,128.5824449
79883,수색DMC파인시티자이점,서울 은평구 은평터널로 15 125호,010-3008-4677,37.5835982,126.8960815
79520,울산문수점,울산 남구 동산로 54 (신정동),052-260-5592,35.5357856,129.3014212
79476,가락극동점,서울 송파구 동남로18길 21,,37.4943428,127.1329201
79466,서울대신양학술정보관3점,"서울 관악구 관악로 1 (신림동, 서울대학교)",,37.4640070,126.9522394
79442,서정대학교보건복지관점,"경기 양주시 은현면 서정로 27 (용암리, 서정대학)",031-866-5150,37.8562211,127.0380285
79416,원주단계북원여고점,강원특별자치도 원주시 원문로137번길 46 (단계동),033-744-5252,37.3530321,127.9315062
79411,신도림푸르지오점,"서울 구로구 경인로 661 (신도림동, 신도림1차푸르지오)",02-3667-6383,37.5095284,126.8877721
79337,경주동대로점,경북 경주시 동대로 12 (성건동),054-777-1551,35.8555406,129.2056330
79292,경희대국제캠퍼스기숙사점,"경기 용인시 기흥구 덕영대로 1732 (서천동, 경희대학교국제캠퍼스)",070-8287-1564,37.2432813,127.0798264
79099,용인새터마을점,경기 용인시 수지구 현암로 101 애플프라자 103호,031-272-5248,37.3319599,127.1204691
79011,경주외동부영점,경북 경주시 외동읍 계동1길 29 (모화리),070-7776-8574,35.6762933,129.3323618
78995,서귀포일호광장점,"제주특별자치도 서귀포시 중앙로 94 (서귀동, 워너비안경)",064-733-9454,33.2529839,126.5615420
78794,광주남부대점,"광주 광산구 남부대길 38 (월계동, 협동관)",062-710-2080,35.2085501,126.8393303
78668,대구다사e편한점,"대구 달성군 다사읍 다사역로 60 (매곡리, 다사 e-편한세상)",053-710-7747,35.8682713,128.4568809
78653,횡성둔내점,강원특별자치도 횡성군 둔내면 둔내로 60,070-7760-6304,37.5119853,128.2169801
78225,안산본오중점,경기 안산시 상록구 본오로 91 103호,031-406-4006,37.2932566,126.8662215
78216,마산진동협성엠파이어점,경남 창원시 마산합포구 진동면 진북산업로 55 협성엠파이어상가 401동 111호,055-713-2087,35.1201917,128.4868240
77842,원주혁신심평원점,강원특별자치도 원주시 혁신로 37-3 스타타워(혁신로37-3) 104호,033-745-6166,37.3236487,127.9793852
77821,서울여대학생누리관가은점,"서울 노원구 화랑로 621 (공릉동, 서울여자대학교)",,37.6282512,127.0938808
77734,청주서원대점,충북 청주시 서원구 서원남로 57 (모충동),,36.6221957,127.4817478
77596,광주광산우체국점,광주 광산구 무진대로232번길 28 (우산동),062-455-9898,35.1603658,126.8055142
77593,여주KCC스위첸점,경기 여주시 강변북로 2 107동(상가동) 111호 - 112호,031-884-3434,37.3016724,127.6491380
77492,부평일신점,"인천 부평구 경인로1104번길 23 (일신동, 동남빌딩)",032-721-5432,37.4845848,126.7421563
77468,우장산한울점,"서울 강서구 공항대로42길 13 (내발산동, 우장산 한울에이치밸리움)",02-3662-2581,37.5572047,126.8441383
77402,원주무실만대로점,강원특별자치도 원주시 만대로 170-1 103호,033-900-1219,37.3333987,127.9228228
77023,일산오미산삼거리점,경기 고양시 일산동구 성현로 7 (성석동),010-4275-2351,37.7104106,126.7880241
76945,대전은행중앙점,대전 중구 중앙로156번길 25 1층,042-341-7814,36.3280192,127.4275994
76765,동수원월드메르디앙점,경기 수원시 팔달구 중부대로143번길 13 (우만동),031-212-1123,37.2790830,127.0319265
76740,인천산곡역점,인천 부평구 마장로 320 한화프라자 1층 107호,070-4800-6666,37.5066003,126.7037115
76193,광주송정명지점,광주 광산구 송도로320번길 16-27 (송정동),062-716-3326,35.1395694,126.8026084
75811,제주도남오거리점,제주특별자치도 제주시 신성로 66 (도남동),064-900-0484,33.4952805,126.5263781
75810,장유월산부곡점,경남 김해시 월산로 151 부영18차 제상가동.1층 104호,055-274-2227,35.2070000,128.7986286
75772,여수웅천지웰점,"전남 여수시 예울마루로 32 상가동 106호(웅천동, 웅천지웰)",061-681-7056,34.7474873,127.6716626
75769,공덕역점,서울 마포구 만리재로 15 104호-105호,070-8883-1112,37.5445786,126.9527595
75765,강릉내곡점,강원특별자치도 강릉시 범일로 630 (내곡동),033-645-2596,37.7432033,128.8820578
75759,역삼2동점,서울 강남구 논현로64길 19,,37.4937257,127.0421152
75667,대전가양점,대전 동구 동서대로1770번길 85 (가양동),,36.3521227,127.4481654
75578,거북시장사거리점,경기 수원시 장안구 정조로 932,031-306-5599,37.2908857,127.0130428
75367,단대죽전점,경기 용인시 수지구 죽전로 150-1 102,031-546-5845,37.3237550,127.1246520
75312,원주상지대길점,"강원특별자치도 원주시 상지대길 9 1층 111, 112호 (우산동)",070-8833-7875,37.3689920,127.9399548
75033,광주전대정문점,광주 북구 자미로 58 (신안동),062-710-4433,35.1711033,126.9045292
74481,청주복대점,충북 청주시 흥덕구 진재로 91 (복대동),070-8287-3236,36.6393920,127.4299726
74448,연산유앤아이점,"부산 연제구 묘봉산로 4 (연산동, 연산동한일유앤아이아파트)",051-710-7879,35.1826581,129.0880309
74430,강일리버파크점,서울 강동구 아리수로93길 27,070-8824-2067,37.5656316,127.1738307
74354,청주오창2산업단지점,충북 청주시 청원구 오창읍 2산단로 132 104호,043-211-8887,36.7330392,127.4507672
74335,경주원효로점,경북 경주시 원효로 168 (황오동),054-775-6133,35.8415454,129.2192574
74268,구로대림점,서울 영등포구 시흥대로 607,02-2088-0986,37.4869711,126.9043549
74134,원주미리내도서관점,강원특별자치도 원주시 양지뜰3길 26 (반곡동),010-8918-6094,37.3261206,127.9831914
74128,인천석천사거리점,인천 남동구 남동대로837번길 5 상가 04호,032-710-7551,37.4572164,126.7080690
74114,노원당고개점,서울 노원구 덕릉로 780 동아불암상가 214호,,37.6670475,127.0799007
74105,강원대병원점,강원특별자치도 춘천시 백령로 159 (효자동),033-818-0026,37.8758392,127.7439445
74050,인천청라로데오시티포레안점,인천 서구 경중로 20 청라로데오시티포레안 135호,,37.5487753,126.6527017
73791,광주수완숲안애점,"광주 광산구 장덕로95번길 16 206동 1층 101호(장덕동, 수완2차숲안애)",062-716-4090,35.1967605,126.8203166
73751,남영동점,서울 용산구 한강대로 282,010-3910-5525,37.5434790,126.9727336
73744,이화여대점,서울 서대문구 이화여대길 37 (대현동),010-2739-7031,37.5586348,126.9455731
73436,대전우송대점,대전 동구 동대전로 170 (자양동),042-631-7333,36.3368176,127.4479357
73381,이천장호원점,경기 이천시 장호원읍 장감로 82,031-643-8288,37.1173635,127.6317482
73273,연천차탄리점,경기 연천군 연천읍 문화로 109,070-4048-0251,38.1029213,127.0786712
73237,인천주안힐스테이트푸르지오점,"인천 미추홀구 남주길 150 (주안동, 힐스테이트 푸르지오 주안)",070-8657-2428,37.4524809,126.6752836
73024,아산탕정명암점,충남 아산시 탕정면 명암길3번길 2  103호 (명암리),,36.8219965,127.0584828
72941,안양대교점,경기 안양시 만안구 안양로 459-1 102호,031-360-0708,37.4108604,126.9110084
72940,부천여월중앙점,경기 부천시 성곡로 65 1층 104호,032-682-8852,37.5192025,126.7976437
72928,청주개신점,충북 청주시 서원구 경신로 40 (개신동),043-237-2023,36.6206678,127.4465245
72685,경복궁점,서울 종로구 자하문로 17-2 (체부동),,37.5776928,126.9718690
72549,제주연동센트럴점,제주특별자치도 제주시 연동13길 37 (연동),064-748-2788,33.4864537,126.4945669
72471,전주송천오송점,전북 전주시 덕진구 사근1길 10 (송천동2가),063-272-1479,35.8664095,127.1280960
72461,의정부을지대학교병원점,"경기 의정부시 동일로 712 (금오동, 을지대학교 의정부캠퍼스 및 부속병원)",,37.7518185,127.0506997
72454,종로6가점,"서울 종로구 종로39길 40 (종로6가, 현마빌딩)",,37.5726216,127.0048925
72434,김포가현초교점,경기 김포시 김포한강2로 96 102,031-986-1253,37.6388926,126.6727827
72427,신설동역점,서울 동대문구 왕산로 18 1층 103호,070-8657-2335,37.5760539,127.0256306
72337,광주무등시장점,광주 남구 군분로 32,062-716-2253,35.1366548,126.8946382
72315,대구호산점,대구 달서구 호산동로 183,053-262-0072,35.8516383,128.4855910
72004,광교역경기대점,"경기 수원시 영통구 대학3로4번길 2 (이의동, 광교 파인렉스2)",070-4113-0085,37.2995801,127.0431220
71997,목포북항점,전남 목포시 청호로 180 원산프라자 1층 103호,061-982-1203,34.8066789,126.3733361
71996,범방점,부산 강서구 범방3로60번길 3 (범방동),051-831-0507,35.1486180,128.8810183
71982,광주풍암중흥점,광주 서구 풍암순환로109번길 1 1층,062-456-1090,35.1212704,126.8833808
71764,춘천장학점,강원특별자치도 춘천시 동면 춘천로449번길 30-1,033-242-5601,37.8949435,127.7540826
71745,범계공항터미널점,경기 안양시 동안구 시민대로159번길 25 1층 125호,070-7776-6346,37.3906077,126.9475290
71669,진례클레이아크점,경남 김해시 진례면 진례로 275-38 1층,055-342-0551,35.2522092,128.7456844
71652,영통아이파크캐슬점,"경기 수원시 영통구 덕영대로 1410 영통아이파크캐슬 1단, 제상가 비동 101호, 102호",031-308-3015,37.2429675,127.0448849
71635,강동고덕역점,서울 강동구 고덕로 256 1층 111호,02-441-9468,37.5546337,127.1541067
71542,강원횡성시장점,강원특별자치도 횡성군 횡성읍 횡성로 412,033-345-1117,37.4893885,127.9863583
71510,안성공도센트럴파크점,경기 안성시 공도읍 도화길 67-21 상가동 1층 103호,070-8882-7570,37.0088025,127.1750040
71493,시흥은계호수공원점,"경기 시흥시 은계중앙로 238 (은행동, 호수의 아침)",070-4797-8453,37.4453647,126.8041825
71226,연신내로데오점,서울 은평구 통일로83길 5-9 (갈현동),070-4833-8467,37.6204750,126.9192213
71225,경기광주신현점,경기 광주시 신현로 75,,37.3605608,127.1553791
70964,광산사거리점,서울 강북구 노해로 88,02-995-4848,37.6433093,127.0226892
70904,등촌현대점,서울 강서구 등촌로39길 13,02-2655-2297,37.5455249,126.8615061
70762,대치중앙점,서울 강남구 삼성로 329 101호,02-6289-6532,37.5010294,127.0594242
70756,수원영통역점,경기 수원시 영통구 봉영로 1569 102호,031-548-1819,37.2520638,127.0710165
70658,정릉아리랑점,"서울 성북구 북악산로 851 (정릉동, 정릉2차 e-편한세상)",,37.6006387,127.0200327
70554,제주이호테우점,제주특별자치도 제주시 테우해안로 174 1층(이호일동),,33.4968850,126.4521504
70550,광명소하2동점,"경기 광명시 오리로 346 (소하동, 행운드림프라자)",02-899-8695,37.4332917,126.8797979
70534,광주월계초등학교점,광주 광산구 월계로 84 (월계동),062-971-8580,35.2124650,126.8350640
70453,울산삼산점,울산 남구 왕생로128번길 29 (삼산동),052-700-8605,35.5455523,129.3318339
70381,부천오정산업단지점,경기 부천시 오정로211번길 39-6 (오정동),,37.5289303,126.7817610
70378,용산아스테리움점,"서울 용산구 한강대로30길 25 (한강로2가, 아스테리움 용산)",010-7775-2188,37.5275037,126.9685280
70097,대전원내점,대전 유성구 진잠로78번길 64 (원내동),042-541-0630,36.2991564,127.3195567
70091,덕포덕상초점,부산 사상구 덕상로 5,051-710-7310,35.1721267,128.9885078
69896,테헤란아이파크점,서울 강남구 테헤란로52길 16 상가-1 제지1층 제3호,070-8836-9051,37.5026646,127.0471190
69867,일산백석역점,경기 고양시 일산동구 중앙로 1047 영림브레아오피스텔 1층 (108호),031-994-5553,37.6431167,126.7872174
69866,의왕삼동프라자점,"경기 의왕시 장안남북로2길 6 105호(삼동, 삼동프라자)",031-461-1371,37.3191739,126.9585492
69865,휘경주공점,"서울 동대문구 한천로46길 42 (장안동, 장안동 마루하우스)",070-8833-9494,37.5814788,127.0707083
69692,대전을지대병원점,대전 서구 둔산로65번길 81 1층 일부호,042-471-3888,36.3550073,127.3809873
69673,세종전통시장점,세종특별자치시 조치원읍 조치원로 22-1,070-4323-3773,36.6012693,127.2992755
69537,평택고덕국제도시점,경기 평택시 함박산9길 11 (고덕동),031-662-7790,37.0387660,127.0307687
69518,후암시장점,서울 용산구 한강대로104길 62 (후암동),070-4910-8887,37.5501360,126.9756048
69515,파주운정초롱초교점,경기 파주시 양지로 123 진영프라자(101호),070-4212-9769,37.7096538,126.7226072
69232,부산경찰청점,"부산 부산진구 동평로405번길 105 (양정동, 보성오페라골드)",051-868-0777,35.1780012,129.0723970
69172,숭실대점,서울 동작구 상도로 357,,37.4969506,126.9535536
69048,나주혁신문화로점,전남 나주시 문화로 226 1층 103호,061-334-3777,35.0189411,126.7852269
69045,전주어은점,전북 전주시 완산구 어은로 18 (중화산동2가),063-902-1183,35.8164666,127.1248234
68929,청주세중테크노밸리점,충북 청주시 흥덕구 공단로 134 112호,070-8657-0220,36.6425254,127.4370774
68926,의령전통시장점,"경남 의령군 의령읍 의병로 224 (중동리, 나드리김밥)",055-574-7720,35.3195487,128.2612133
68896,녹번점,서울 은평구 은평로 229 (녹번동),,37.6012816,126.9332600
68731,원주기업롯데캐슬점,강원특별자치도 원주시 지정면 가곡로 70-1 124호,,37.3777960,127.8765002
68715,마산해양공원점,경남 창원시 마산합포구 해안대로 107-1 (월남동2가),055-713-2622,35.1855032,128.5631822
68130,부천테크노파크점,경기 부천시 석천로 345,,37.5189333,126.7647000
68129,용인외대점,경기 용인시 처인구 모현읍 외대로 32 104호,031-321-0133,37.3361309,127.2527736
68126,송파방이점,서울 송파구 마천로 79,02-401-4696,37.5074844,127.1292164
68085,양주덕계점,경기 양주시 평화로 1414,,37.8171926,127.0464393
68020,대구현풍중앙점,대구 달성군 현풍읍 현풍중앙로 56 (하리),053-716-1228,35.6943022,128.4456292
68019,대구상인은하점,대구 달서구 월곡로 332-1 (상인동),053-631-2287,35.8225646,128.5338022
67941,고관수정점,부산 동구 중앙대로349번길 42,051-931-0931,35.1263376,129.0450510
67940,수원인계JK점,경기 수원시 팔달구 인계로108번길 9 1층 102호(인계동),070-4786-7566,37.2672624,127.0294739
67935,구로4동점,서울 구로구 구로동로 78 1층,02-859-7776,37.4858069,126.8858836
67784,고양주교점,경기 고양시 덕양구 원당로113번길 10 1층 103호,070-8821-0056,37.6622886,126.8377941
67645,수유시장점,서울 강북구 도봉로67길 18 A-17호,02-987-1679,37.6307463,127.0227328
67529,금천구청점,서울 금천구 시흥대로63길 43 (시흥동),070-4150-8000,37.4551829,126.8972768
67528,춘천남부초점,강원특별자치도 춘천시 미나리길11번길 12-13 1층,,37.8588125,127.7276159
67454,인천계산시장점,인천 계양구 계산천동로 18-1 (계산동),010-5008-6971,37.5382553,126.7243353
67132,대전용전점,대전 동구 계족로 455,042-369-1030,36.3523865,127.4321432
67065,과천엠타워점,"경기 과천시 과천대로2길 6 (갈현동, 과천 테라스 원)",070-8835-1130,37.4071811,126.9798470
67045,대치은마점,서울 강남구 도곡로 516 101호,,37.4991911,127.0630094
67044,창원성산반도유보라점,경남 창원시 성산구 비음로 167 131동 B102호,055-264-6623,35.2191227,128.7079526
66867,인천옥련중학교점,인천 연수구 청량로 210 105호,,37.4252997,126.6530225
66802,구미1공단점,경북 구미시 산호대로 213 1층 112호,,36.1027218,128.3849573
66507,창원대방성원3차점,"경남 창원시 성산구 대암로 80 (대방동, 성원3차아파트상가)",055-609-3777,35.2150000,128.7052998
66488,평택소사벌중흥점,"경기 평택시 비전3로 115 (죽백동, 평택소사벌중흥에스-클래스에코시티)",070-8657-2191,37.0082075,127.1096820
66487,분당미금중앙점,"경기 성남시 분당구 정자일로 21 (금곡동, 삼라마이다스빌)",070-8657-0288,37.3517105,127.1057909
66238,당진수청호반점,충남 당진시 수청2로 48 105호,,36.8880145,126.6527822
66193,안산시그니처타워점,경기 안산시 상록구 해양3로 15 (사동),070-8711-0223,37.2854490,126.8285437
66169,신월5동점,서울 양천구 화곡로 105 (신월동),02-6341-0510,37.5400715,126.8336112
66141,칸마트엘시티점,"부산 해운대구 달맞이길 30 (중동, 엘시티)",051-731-1666,35.1610640,129.1683765
66044,완주삼례우석대점,전북 완주군 삼례읍 동학로 115 (후정리),063-287-2580,35.9150839,127.0683582
66010,면목2동점,서울 중랑구 봉우재로 40,070-7717-7742,37.5904004,127.0777369
66000,남양주호평오거리점,경기 남양주시 호평로68번길 1 (호평동),031-591-5679,37.6560644,127.2479563
65997,원주원동사거리점,강원특별자치도 원주시 무실로 113 070-7803-8884,강원특별자치도 원주시 원동 278-1,37.3440050,127.9436931
65827,자양전통시장점,서울 광진구 자양로15길 43 (자양동),02-6213-1740,37.5353598,127.0813549
65732,인천논현라피에스타점,인천 남동구 논고개로 61 라피에스타 상가 121호,032-212-0411,37.3975366,126.7275277
65617,광주첨단롯데점,광주 광산구 첨단강변로99번길 11 (쌍암동),062-973-2050,35.2154075,126.8518929
64881,일산장항공단점,경기 고양시 일산동구 장항로 329 (장항동),010-9058-5191,37.6443114,126.7635268
64878,영통플래티넘베이스점,경기 수원시 영통구 망포로 142 B동 101-2호,070-8657-0543,37.2409407,127.0493582
64872,인천송도호반써밋점,"인천 연수구 랜드마크로 20 (송도동, 호반써밋 송도)",070-7811-3754,37.4160764,126.6245371
64805,창원중앙경남오피스텔점,경남 창원시 성산구 중앙대로 37 경남오피스텔 105호,055-286-1236,35.2192848,128.6752165
64629,마포광흥창점,서울 마포구 독막로 176,070-7576-0147,37.5472536,126.9330465
64310,목포역점,전남 목포시 수문로 13 13-1,061-980-0303,34.7915255,126.3844414
64268,원주터미널점,강원 원주시 장미공원길 71-12 1층,033-748-5789,37.3455047,127.9301433
64220,당진문예의전당점,충남 당진시 시청1로 82 103호,041-355-0423,36.8911982,126.6386201
64194,일산한뫼초점,경기 고양시 일산서구 고양대로 632 아카데미 상가 1층 109호,070-8657-1437,37.6855009,126.7662908
64168,주촌무지개공원점,경남 김해시 주촌면 선천북로42번길 12-7 (선지리),055-724-1243,35.2416488,128.8353367
64129,진주평거들말대경점,"경남 진주시 석갑로53번길 28 (평거동, 들말대경아파트)",055-795-5888,35.1749987,128.0631118
64023,아산배방자이점,충남 아산시 배방읍 호서로 458 상가2동 1층 110호 (배방자이1차아파트),070-8657-1717,36.7704052,127.0817426
63973,인천송도아트포레점,인천 연수구 인천타워대로 257 송도아트포레푸르지오시티 B동 112호,070-4639-1004,37.3937819,126.6332894
63821,대구율하광장점,대구 동구 안심로22길 60-23 (율하동),053-965-5817,35.8629437,128.6945714
63781,초읍대공원점,부산 부산진구 새싹로 277 (초읍동),051-715-3077,35.1808301,129.0471017
63762,인천용현토금점,인천 미추홀구 토금남로 2 노블레스상가 105호,070-7612-8873,37.4529239,126.6329071
63761,진량이안점,경북 경산시 진량읍 일연로 745-1 (선화리),053-853-9998,35.8744591,128.8043163
63687,광주학운평화점,광주 동구 증심천로 23 (학동),062-223-6584,35.1306167,126.9323058
63672,의정부어룡점,경기 의정부시 용현로105번길 27 (민락동),,37.7426500,127.0870665
63304,일산어반스카이점,경기 고양시 일산서구 고양대로 666 어반스카이 D동 112호,031-8076-5165,37.6835548,126.7692643
63290,동두천지행점,경기 동두천시 지행로 63 104호,,37.8926770,127.0542513
63187,인천주안1동점,인천 미추홀구 석바위로 87,070-8657-2577,37.4611304,126.6829343
63095,인천동암역점,"인천 부평구 아트센터로 24 상가 1,2층",032-434-2333,37.4701239,126.7033308
63094,광주효천2지구점,"광주 남구 효우2로 26 101호(행암동, 운재투빌딩)",062-462-1222,35.1019340,126.8893549
63005,서대신역점,"부산 서구 대티로 178 (서대신동2가, 대신해모로센트럴아파트)",051-710-6666,35.1113599,129.0115556
62914,삼육서울병원점,서울 동대문구 망우로 83,070-7756-2787,37.5902909,127.0622289
62751,송파헬리오시티점,서울 송파구 가락로 56 (석촌동),070-8835-9072,37.4994790,127.1026059
62294,대전죽동점,대전 유성구 유성대로 875,042-822-7415,36.3697452,127.3395662
62278,신당감점,부산 부산진구 백양순환로 163,051-710-7004,35.1662819,129.0417000
62261,안양삼덕공원점,경기 안양시 만안구 병목안로 20 104호,031-469-1727,37.3989550,126.9183718
62247,화성반월점,경기 화성시 영통로60번길 31,,37.2383491,127.0651966
62221,고양덕은리버워크점,"경기 고양시 덕양구 청초로 66 108호(덕은동, 덕은리버워크)",,37.5780112,126.8624765
62220,평택포승점,경기 평택시 포승읍 여술2길 45,070-4032-5236,36.9892165,126.8438681
62089,구로궁동점,서울 구로구 부일로15길 36-2 (궁동),02-2619-1009,37.4944990,126.8332150
62044,목포남악아이파크점,전남 무안군 삼향읍 남악2로74번길 37 102호,061-283-5956,34.8130643,126.4589736
62007,시흥대야파크점,"경기 시흥시 비둘기공원7길 27 (대야동, 서해아파트)",031-316-2225,37.4435787,126.7930388
61997,구포KTX역점,부산 북구 낙동대로1694번길 6 1층,051-715-5056,35.2058190,128.9965330
61994,진량1공단점,경북 경산시 진량읍 공단1로 34 (신상리),053-852-1473,35.8736391,128.8227235
61993,경주터미널점,경북 경주시 태종로685번길 2 (노서동),054-624-3658,35.8389063,129.2036615
61979,장유삼문아쿠아점,경남 김해시 번화2로 2 1층 109호,055-724-2305,35.1894895,128.8067598
61464,대전송촌5단지점,대전 대덕구 동춘당로44번길 27,070-8657-1010,36.3635257,127.4452116
61463,전북도청점,전북 전주시 완산구 홍산로 246 1층 107호,063-224-7774,35.8155568,127.1064474
61462,용인수지e편한세상점,경기 용인시 수지구 포은대로313번길 7-10 124동 105호,031-272-7778,37.3156547,127.0852243
61461,당산2동점,서울 영등포구 당산로35길 8,070-7670-4013,37.5290769,126.8970084
61460,삼척교동점,강원 삼척시 정상로 79 청솔2차아파트상가 209동 105호,,37.4486965,129.1747912
61459,왕십리역사점,서울 성동구 왕십리광장로 17 4층 135호,02-2292-6778,37.5614086,127.0384812
61458,시흥시화나래점,경기 시흥시 거북섬로 207 1층 105호,,37.3227592,126.6875674
61345,당진읍내점,충남 당진시 계성3길 6,,36.8980370,126.6345790
61230,천안청당초교점,충남 천안시 동남구 청당5로 36 (청당동),070-7697-5926,36.7803051,127.1527083
61229,대전법동시장점,대전 대덕구 계족산로5번안길 22,042-624-5560,36.3670814,127.4317607
61224,대구송현역점,대구 달서구 월배로 414 (송현동),053-655-3516,35.8310047,128.5521039
61013,김천혁신점,"경북 김천시 혁신3로 15 (율곡동, 율곡스퀘어 Ⅵ)",,36.1173178,128.1829268
61012,양산삼성명가타운점,경남 양산시 평산중앙로 66,,35.3851882,129.1524273
60998,판교제2테크노밸리점,경기 성남시 수정구 창업로 55 디엔써밋에디션 상가 104호,07082826040,37.4109519,127.0952182
60997,공릉2동점,서울 노원구 공릉로38길 5,02-6465-9855,37.6233509,127.0797748
60602,은평서부병원점,서울 은평구 응암로 331,02-3157-2132,37.6008476,126.9221169
60362,광주장덕먹거리타운점,광주 광산구 장신로20번안길 38 (장덕동),062-955-1074,35.1904677,126.8113650
60352,동덕여대점,서울 성북구 화랑로11길 37,02-941-6157,37.6039474,127.0422339
59901,서울성균관대점,서울 종로구 성균관로 12-1,,37.5840639,126.9979027
59900,개금백양로점,부산 부산진구 백양대로320번길 4,051-892-5007,35.1542264,129.0166253
59828,당산중앙점,서울 영등포구 양평로 16,02-2675-7715,37.5328795,126.9045068
59613,인천가정법원점,인천 미추홀구 경원대로 893,032-422-0423,37.4625622,126.6895001
59608,과천스마트K점,"경기 과천시 과천대로7길 20 (갈현동, 과천 스마트케이 업무시설)",,37.4141254,126.9791781
59554,전주에코시티점,전북 전주시 덕진구 세병로 26 101호,063-252-9442,35.8741097,127.1277010
59513,목포하당서남점,"전남 목포시 비파로 21 (상동, 서남빌딩)",,34.8007013,126.4280639
59510,춘천퇴계점,강원 춘천시 효자로 3 (퇴계동),070-8822-2055,37.8652587,127.7258127
59509,포천운천점,경기 포천시 영북면 운천로 23 (운천리),,38.0911452,127.2718723
59508,광주운림중학교점,"광주 동구 의재로 123 (운림동, 무등파크맨션)",062-222-6148,35.1326354,126.9412928
58993,청평중앙점,경기 가평군 청평면 청평중앙로 13,031-585-4331,37.7362910,127.4164609
58992,안양국제유통단지점,"경기 안양시 동안구 엘에스로 76 (호계동, 국제유통단지 가동)",,37.3700483,126.9531286
58991,김해어방인제로점,경남 김해시 인제로 97,055 337 2200,35.2372016,128.9040607
58920,망원시장점,서울 마포구 망원로8길 53 (망원동),,37.5550774,126.9065065
58917,성수카페거리점,서울 성동구 뚝섬로9길 20 (성수동2가),070-8275-4807,37.5399249,127.0562377
58916,청계천베네치아점,서울 중구 청계천로 400 메가몰동 1031호,070-8287-1627,37.5707646,127.0211246
58650,포항양학점,경북 포항시 북구 양학로9번길 14 (득량동),054-614-0990,36.0237879,129.3504571
58605,수안역점,부산 동래구 명륜로75번길 12 (수안동),051-710-3833,35.2007606,129.0833807
58602,영암삼호점,전남 영암군 삼호읍 삼호중앙로 202 (용앙리),061-461-5472,34.7450509,126.4728156
58601,나주혁신한빛로점,전남 나주시 한빛로 41,,35.0252510,126.7797304
58312,구덕운동장점,부산 서구 대신로 83 (서대신동3가),0507-1362-5247,35.1158426,129.0128026
58311,하남감일중앙점,경기 하남시 감일백제로180번길 17 제1동 115호,02-6104-1015,37.5092034,127.1548273
58310,강서공항점,"서울 강서구 방화동로 57 1,2층",070-8691-4719,37.5657123,126.8120027
58309,인천국립생물자원관점,인천 서구 환경로 42 1층,,37.5688204,126.6402668
58306,창동역서부점,서울 도봉구 노해로63길 78,02-990-0279,37.6525824,127.0463482
58305,시흥하상동점,경기 시흥시 연성로 88 102호,,37.3906209,126.8131315
57971,대전시청역점,대전 서구 둔산로 130,070-8287-2851,36.3509828,127.3881385
57912,시흥은행나무점,서울 금천구 금하로 714 1층,02-807-7257,37.4508233,126.9089724
57830,시흥댓골점,경기 시흥시 대야로 4,,37.4441863,126.7889880
57758,천안신부노블시티점,"충남 천안시 동남구 신부8길 21 상가1-1,2동 지하1층 120호",070-4888-3987,36.8167348,127.1625321
57755,인천주안힐스테이트후문점,인천 미추홀구 인주대로 325,070-5057-3224,37.4520857,126.6726123
57754,신금호중앙점,"서울 성동구 금호산길 67 (금호동2가, 금호빌딩)",,37.5543423,127.0195285
57753,오산원동초점,경기 오산시 오산로 93,031-375-2212,37.1352005,127.0687222
57752,고양덕은드림코어점,경기 고양시 덕양구 으뜸로 124 109호,02-3159-2232,37.5791515,126.8698140
57751,일산라페스타점,경기 고양시 일산동구 무궁화로 31-2 110호,031-994-2029,37.6631069,126.7678775
57750,일산라페스타점,경기 고양시 일산동구 무궁화로 31-2 110호,031-994-2029,37.6631069,126.7678775
57681,수유3동점,서울 강북구 도봉로 386,02-908-9554,37.6409836,127.0292459
57601,인천루원지웰시티점,인천 서구 가정로 406 104호,070-8287-1937,37.5214635,126.6739528
57598,광주효천중흥점,광주 남구 효우로 332-7 1층 109호,062-673-0003,35.0997727,126.8819100
57497,대구봉덕점,대구 남구 이천로 16 (봉덕동),010-5333-8582,35.8420869,128.5982907
57199,부안터미널점,전북 부안군 부안읍 석정로 210 (봉덕리),063-581-7999,35.7268251,126.7369659
57192,군포신환사거리점,"경기 군포시 금산로 1 (금정동, 아산 나부빌)",031-429-1027,37.3627738,126.9410577
57128,인천서부경찰서점,인천 서구 탁옥로97번길 2,070-8287-3383,37.5438458,126.6806773
57109,우암자유점,부산 남구 우암로154번길 50 (우암동),051-715-1540,35.1254170,129.0815794
56972,평택점촌점,경기 평택시 점촌로28번길 2 (서정동),070-8633-8632,37.0632227,127.0570080
56782,삼각지역점,서울 용산구 한강대로62가길 20,02-798-0002,37.5346769,126.9749954
56767,다산부영애시앙점,"경기 남양주시 도농로 24 다산동, 부영애시앙 상가",070-7500-6543,37.6087966,127.1585900
56758,인천신흥시장점,인천 중구 서해대로454번길 7,032-888-6636,37.4663437,126.6356305
56757,광주농성SK뷰점,광주 서구 상무대로1147번길 16 지하2층 109호,062-716-7176,35.1553768,126.8867671
56703,부개주공점,"인천 부평구 부개로 61-6 105,106호",,37.5032882,126.7396102
56481,울산대정문점,울산 남구 대학로 96 2층,052-221-2600,35.5435563,129.2602814
56425,김천율곡점,경북 김천시 혁신6로 8 1층 101호,054-434-0488,36.1238652,128.1820758
56422,충남예산산성점,충남 예산군 예산읍 벚꽃로127번길 2,041-335-7979,36.6921729,126.8355484
56421,금산터미널점,충남 금산군 금산읍 후곤천길 83,041-753-6800,36.1051849,127.4910607
56352,용인신갈오거리점,경기 용인시 기흥구 신갈로58번길 1 (신갈동),031-283-7760,37.2720172,127.1060239
56347,숙명여대점,서울 용산구 청파로47길 83,,37.5449544,126.9657476
56300,덕계스타프라자점,경기 양주시 회천중앙로 248 111호,,37.8196515,127.0535361
56299,명지대정문점,서울 서대문구 거북골로 21,070-8287-2956,37.5801078,126.9249948
56147,고양삼송듀클래스점,경기 고양시 덕양구 삼막3길 5 B103호,070-8817-8282,37.6676258,126.9207341
56144,고양삼송듀클래스점,경기 고양시 덕양구 삼막3길 5 B103호,070-8817-8282,37.6676258,126.9207341
56143,일산정발산점,경기 고양시 일산동구 일산로441번길 6-19 (정발산동),031-923-7633,37.6733677,126.7764311
56108,인천검단대성베르힐점,인천 서구 이음1로 154 검단대성베르힐 상가 106호,,37.5821007,126.7082854
55950,성남수정구청점,"경기 성남시 수정구 수정로 286 1층 101, 102호",,37.4499445,127.1468187
55891,장성삼계점,전남 장성군 삼계면 사창로 35 (사창리),,35.2576183,126.6674443
55613,안양평래푸점,경기 안양시 동안구 경수대로884번길 19 (비산동),031-360-5685,37.3974973,126.9387644
55612,한남순천향점,서울 용산구 대사관로 64 (한남동),070-8833-5555,37.5332417,127.0051781
55611,제천청전점,충북 제천시 용두천로 313 충청북도 제천시 청전동 626-1 101호,043-645-3400,37.1529190,128.2171173
55586,대연사거리점,부산 남구 진남로 6 1층,051-714-2368,35.1355894,129.0919878
55501,미아사거리역점,서울 강북구 도봉로 52 와이스퀘어1층,02-6312-6199,37.6137225,127.0305267
55500,부산과기대점,부산 북구 시랑로 80 1층,,35.1984706,129.0057055
55391,군산수송오투점,전북 군산시 수송로 137 101호,063-465-0538,35.9642360,126.7105019
55388,청주하복대점,충북 청주시 흥덕구 진재로 40 1층(복대동),043-900-1704,36.6347788,127.4296975
55383,목포근대역사점,전남 목포시 영산로 50 (대의동1가),061-982-2015,34.7870904,126.3842381
55382,인천 청라힐데스하임점,인천 서구 청라라임로16번길 30 (청라동),,37.5290872,126.6534819
55381,안산상록수점,경기 안산시 상록구 본삼로 41 (105호),031-362-6005,37.3011320,126.8647036
55292,동래시장점,부산 동래구 명륜로112번길 42-1 (수안동),051-977-4000,35.2032262,129.0852022
55169,김해내삼공단점,경남 김해시 주촌면 서부로1499번길 11 1층,055-338-6888,35.2315620,128.8189012
55093,대구다사점,대구 달성군 다사읍 대실역북로1길 9 (매곡리),053-710-9352,35.8586300,128.4657092
54882,하구운사거리점,경기 수원시 권선구 구운중로3번길 5 1층(구운동),,37.2752731,126.9731605
54848,군포한림엘타워점,"경기 군포시 공단로140번길 22 (당정동, 한림엘타워)",,37.3571703,126.9522106
54631,남양주금곡점,경기 남양주시 금곡로 72,031-591-6366,37.6345001,127.2111479
54570,광주동림하나로점,광주 북구 유림로 140 (동림동),062-716-1016,35.1748623,126.8642093
54549,대전노은점,"대전 유성구 은구비남로33번길 5 (지족동, 경남아너스빌2)",042-826-5849,36.3725342,127.3191382
54474,인천송도센트로드점,"인천 연수구 인천타워대로 323 (송도동, 송도 센트로드)",,37.3982810,126.6304120
54231,안산중앙점,경기 안산시 단원구 고잔로 108 1층 129-1호,070-8834-0875,37.3185840,126.8380550
54130,수원고색초점,경기 수원시 권선구 매송고색로691번길 2,031-292-9005,37.2508879,126.9801801
54129,기업은행본점,"서울 중구 을지로 79 (을지로2가, 기업은행)",02-751-3743,37.5664960,126.9865832
54126,영도동삼점,부산 영도구 와치로 252,051-715-5325,35.0753582,129.0689898
54123,김제검산점,전북 김제시 검산택지3길 25 102호,063-546-5002,35.8021816,126.9031089
54038,마들로또명당점,"서울 노원구 동일로 1493 (상계동, 상계주공아파트(10단지))",02-3391-2819,37.6616424,127.0580017
54037,고척시장점,서울 구로구 경인로47길 118 (고척동),02-2687-7803,37.5038672,126.8637398
54036,평택에이스고덕점,경기 평택시 고덕중앙로 290 172호,031-633-1966,37.0457082,127.0529950
53988,양산목화점,경남 양산시 물금읍 목화로 47 (범어리),0553866766,35.3314145,129.0010585
53743,망포플래티넘베이스점,경기 수원시 영통구 덕영대로 1470 130-131호,070-8830-9595,37.2450583,127.0511613
53720,화성봉담신수마을점,경기 화성시 봉담읍 신수길 6-21 105-6호,031-292-0777,37.2280421,126.9413996
53702,인천경인여대점,"인천 계양구 계양산로 66 (계산동, 세경빌라)",,37.5476401,126.7228504
53549,이안동대구점,대구 동구 송라로28길 14 303동 1층 101호,053-953-1311,35.8787601,128.6163196
53392,정읍수성점,"전북 정읍시 수성로 45 (수성동, 정읍수성우체국)",,35.5820162,126.8550799
53294,화성봉담원희캐슬점,경기 화성시 봉담읍 동화길 51 프리미엄원희캐슬 106호,,37.2190315,126.9554909
53291,남산그린점,부산 금정구 금강로681번길 64,051-715-7104,35.2683083,129.0854448
53288,진주칠암점,경남 진주시 동진로20번길 21-7 (칠암동),055-795-2585,35.1783222,128.0942721
52975,광주금호중흥점,"광주 서구 마재로 21 120동 1층 104호(금호동, 중흥아파트)",062-716-1716,35.1316702,126.8620926
52974,대전한빛점,대전 유성구 어은로 57 1층  107~110호,042-864-0509,36.3650212,127.3561171
52953,대전한밭대점점,대전 유성구 학하서로121번길 45-6 1층,042-825-0952,36.3494693,127.2987280
52698,공항덕두점,부산 강서구 공항앞길 6 1층 101호,0519410158,35.1804591,128.9544881
52683,범계에이스점,경기 안양시 동안구 시민대로109번길 29 109,,37.3871759,126.9436031
52680,안산고잔역남부점,경기 안산시 단원구 광덕4로 108,070-7576-3440,37.3151617,126.8242758
52675,중랑면목시장점,서울 중랑구 면목로 293 A동 101호,02-6012-2209,37.5789716,127.0862102
52620,정관덕산점,부산 기장군 정관읍 정관덕산길 41 (방곡리),,35.3226415,129.1843605
52525,원주관설홈플러스점,강원 원주시 나비허리길 168 (관설동),033-766-6161,37.3184023,127.9654141
52446,중랑망우점,서울 중랑구 망우로 353 104호,070-7778-9332,37.5982973,127.0903644
52429,의정부효자초교점,경기 의정부시 부용로 209,,37.7500180,127.0797873
52328,장유신문리인점,경남 김해시 장유로334번길 10 1층,0507-0289-3172,35.1963688,128.8155500
52327,당산한강포스빌점,서울 영등포구 양평로 67 1층 102호,02-2636-6553,37.5349267,126.8993141
52210,평촌꿀벌말점,경기 안양시 동안구 흥안대로456번길 82 101호,070-8287-1821,37.3931872,126.9799528
52181,고대안암오거리점,서울 성북구 안암로9가길 80-1,,37.5825403,127.0284202
51895,대전도룡점,대전 유성구 대덕대로 594 106호,,36.3859410,127.3790050
51894,완도해변공원점,전남 완도군 완도읍 개포로 184 1층,061-555-0755,34.3203561,126.7479317
51893,순천법원점,전남 순천시 왕지5길 11,061-722-7226,34.9722003,127.5236029
51892,천안성환점,충남 천안시 서북구 성환읍 성환1로 240,0502-1949-5898,36.9161065,127.1282909
51885,제천하소점,충북 제천시 하소로 55 1층 101호,043-642-7773,37.1410885,128.1987302
51884,논산취암점,충남 논산시 중앙로410번길 15 (취암동),041-732-9131,36.2015868,127.0896302
51883,서대전네거리점,대전 중구 계룡로874번길 13 (오류동),,36.3231047,127.4104158
51882,당진송악점,충남 당진시 송악읍 신복운로3길 23-1 1층,041-970-8950,36.9410028,126.7821193
51881,화성병점사거리점,경기 화성시 경기대로 1031 1층,070-4833-8997,37.2076855,127.0349814
51880,김포시청점,경기 김포시 돌문로 50,031-988-9004,37.6195671,126.7177452
51879,송파몽촌토성점,서울 송파구 백제고분로50길 8 (방이동),,37.5140973,127.1157073
51878,김포고창마을점,경기 김포시 김포한강2로 220 102호,,37.6452555,126.6613554
51877,서초대교점,"서울 서초구 서초중앙로22길 8 1층, 1호",02-525-5534,37.4930413,127.0144101
51876,수원권선시장점,"경기 수원시 권선구 세권로195번길 20-4 (권선동, 세륜빌딩)",031-546-5810,37.2560484,127.0260905
51875,춘천우두중앙점,강원 춘천시 우두1길 17 103호,033-255-2704,37.9113569,127.7385546
51874,홍대서교점,서울 마포구 와우산로23길 42 (서교동),02-325-2220,37.5546766,126.9236850
51873,평택안중터미널점,경기 평택시 안중읍 안현로서8길 15 1층,031-682-1786,36.9786452,126.9235338
51870,화성병점사거리점,경기 화성시 경기대로 1031 1층,070-4833-8997,37.2076855,127.0349814
51869,가좌역가재울점,"서울 서대문구 수색로 56 127호, 128호",02-304-8908,37.5708721,126.9123057
51868,강릉임당점,강원 강릉시 문화의길 18,033-922-8040,37.7555338,128.8941157
51867,화성병점사거리점,경기 화성시 경기대로 1031 1층,070-4833-8997,37.2076855,127.0349814
50743,성동구청점,서울 성동구 무학로6길 50 101동 2층 236-1호,,37.5644041,127.0349790
50680,제천하소점,충북 제천시 하소로 55 1층 101호,043-642-7773,37.1410885,128.1987302
50643,의왕계원예대점,경기 의왕시 계원대학로 16 107호,031-422-6609,37.3793688,126.9731155
50642,이천갈산점,경기 이천시 향교로 172-1 1층 101호,031-633-4105,37.2852333,127.4562393
50641,영주구성오거리점,경북 영주시 구성로 333 1층,070-8287-3536,36.8219064,128.6243589
50448,대구신매시장점,대구 수성구 신매로 98-1 (신매동),070-7721-7979,35.8381620,128.7092274
50344,부천원미사거리점,경기 부천시 원미로 130 1층 일부,070-4833-0842,37.4941574,126.7914606
50185,이천마장점,경기 이천시 마장면 마장로 16 마장타워 110,070-4797-1916,37.2531991,127.3539462
50108,굽은다리점,서울 강동구 양재대로 1543 1층,,37.5435097,127.1418778
50078,전남화순금호타운점,"전남 화순군 화순읍 광덕로 205 (만연리, 금호타운)",061-373-3339,35.0632135,126.9922710
50077,당신송악점,충남 당진시 송악읍 신복운로3길 23-1 1층,041-970-8950,36.9410028,126.7821193
50074,가재울뉴타운점,서울 서대문구 거북골로14길 32 제상가동 제지3층 제 111호,02-303-0133,37.5767963,126.9145285
50073,고양덕산로점,경기 고양시 일산서구 덕산로 97 1층 일부(가좌동),,37.6940336,126.7138094
50070,정릉입구점,서울 성북구 보국문로 11 1층 점포 좌측(정릉동),,37.6056181,127.0111609
50069,양주덕정점,경기 양주시 화합로 1361 1층,031-868-3646,37.8435707,127.0624542
49862,인천불로점,인천 서구 검단로744번1길 23 (불로동),,37.6125578,126.6861792
49539,안산제1종합시장점,"경기 안산시 단원구 선이로 14 1층, 1124호",070-4047-4137,37.3423648,126.8036237
49538,개금백병원점,부산 부산진구 복지로 83 1층,051-633-1892,35.1458942,129.0200259
49505,안산초지로사거리점,"경기 안산시 단원구 광덕1로 61 (초지동, 신명프라자)",031-410-6566,37.3088156,126.8163404
49504,부천오정점,경기 부천시 부천로476번길 51 101호,032-233-2104,37.5266960,126.7853278
49500,면목두산점,서울 중랑구 사가정로42길 71 1층,,37.5782560,127.0822484
49090,일광신도시센트럴타워점,부산 기장군 일광읍 해빛5로 25,051-710-6364,35.2605010,129.2218535
49010,세종새롬점,세종특별자치시 새롬중앙로 47,044-866-9730,36.4850028,127.2507890
48971,잠실나루역점,서울 송파구 올림픽로35길 94 102호,,37.5184626,127.1034570
48900,충주연수점,충북 충주시 갱고개로 138 (연수동),043-724-0303,36.9832522,127.9399262
48879,하남신장점,경기 하남시 신장로 127,031-793-7133,37.5380654,127.2041228
48878,일산풍동점,경기 고양시 일산동구 숲속마을로 26 102호,,37.6673336,126.8004029
48865,평택세교부영점,경기 평택시 세교공원로 66 상가제1동 1층 107호,031-618-1121,37.0035948,127.0852822
48788,NH서울타워점,서울 강서구 양천로 570,,37.5567284,126.8620105
48787,시흥시화로데오점,경기 시흥시 중심상가3길 11 그린프라자 101호,031-431-2803,37.3450179,126.7370465
48786,대구중동점,대구 수성구 수성로 218 (중동),,35.8449688,128.6130207
48763,영종메가타워점,인천 중구 흰바위로 236 영종메가타워 119호,032-751-8740,37.4797231,126.5020583
48726,창원삼정자점,"경남 창원시 성산구 삼정자로43번길 8 (성주동, 성주빌딩)",055-713-9008,35.1987709,128.7110238
48723,창원팔용사화점,경남 창원시 의창구 남산로27번길 1,055-253-5048,35.2590507,128.6130356
48722,광주풍향금호점,광주 북구 군왕로 18 1층,062-716-6547,35.1633369,126.9301980
48711,상일동역1호점,"서울 강동구 고덕로 380 (상일동, 고덕아르테온(근린생활시설-2))",,37.5564806,127.1681333
48458,파주문산자유시장점,"경기 파주시 문산읍 문향로 72-1 (문산리, 문산 터미널 타워)",070-4100-0615,37.8580855,126.7857886
48449,반포GOTO몰점,"서울 서초구 신반포로 지하 200 (잠원동, 강남터미널지하쇼핑몰)",,37.5056800,127.0058468
48388,충북옥천점,충북 옥천군 옥천읍 삼양로 93 1층,043-733-9997,36.3033806,127.5696703
48371,성수중흥S클레스점,"서울 성동구 아차산로13길 16 랭킨중흥s클레스 오피스텔 1층 108호,109호",02-6326-0237,37.5446550,127.0614031
48370,시흥정왕역교차로점,경기 시흥시 마유로418번길 12 106호,,37.3514108,126.7422674
48289,홈플러스평촌점,"경기 안양시 동안구 동안로 162 지하1층(비산동, 홈플러스)",031-388-7770,37.3932706,126.9504247
48288,포천가산점,경기 포천시 가산면 선마로 238 1층 131호,031-541-3552,37.8470825,127.1872185
48151,목포장미의거리점,전남 목포시 장미로 23 101호,,34.8016914,126.4239773
48150,광주상무평화점,광주 서구 시청로20번길 10 1층 치평동,062-383-2717,35.1501466,126.8527676
48149,인천장기점,인천 계양구 황어로126번길 2 1층 장기동,,37.5794167,126.7347770
48056,서귀포태평로점,제주특별자치도 서귀포시 태평로 355 가동 1층,,33.2464494,126.5594257
48055,제주공항렌트카점,제주특별자치도 제주시 다호5길 17,,33.5015253,126.4889340
48054,광명스피돔점,경기 광명시 광명로 721,,37.4669322,126.8452232
48053,의정부동오마을점,경기 의정부시 추동로 9 지상 1층 113호,,37.7430184,127.0568800
48052,강원양양점,강원 양양군 양양읍 양양로 58,,38.0757359,128.6227912
48051,울산대학로점,울산 남구 대학로33번길 17 1층,052-700-6611,35.5397003,129.2544214
48050,진주시청점,경남 진주시 도동천로 48 1층,,35.1778400,128.1057896
48049,구미진평점,경북 구미시 인동북길 105 (인의동),070-8287-1860,36.0981358,128.4278452
48046,포항오천힐스테이트점,경북 포항시 남구 오천읍 하원로 58 102호,,35.9757909,129.4046735
47864,김해안하점,경남 김해시 한림면 용덕로 310 (안하리),055-345-1680,35.3038132,128.8291428
47835,밀양시청점,경남 밀양시 시청로 27 (내이동),055-355-6999,35.5044683,128.7443705
47834,강원신철원점,강원 철원군 갈말읍 삼부연로 3,033-452-5557,38.1451902,127.3084409
47768,광명스피돔점,"경기 광명시 광명로 721 (광명동, 광명시돔경륜장)",,37.4669322,126.8452232
47767,의정부동오마을점,경기 의정부시 추동로 9,,37.7430184,127.0568800
47750,부천번영사거리점,경기 부천시 부흥로315번길 69 (중동),070-8287-2408,37.4974439,126.7766985
47741,강원양양점,강원 양양군 양양읍 양양로 58 (남문리),033-671-2729,38.0757359,128.6227912
47738,인천연수유천점,인천 연수구 먼우금로 302 1층 121호,,37.4228017,126.6834091
47401,천안두정초점,"충남 천안시 서북구 봉정로 374 (두정동, 창성빌딩)",,36.8353044,127.1457642
47236,거제능포점,경남 거제시 능포로 134 (능포동),055-681-0098,34.8755882,128.7317117
47163,진천중앙점,충북 진천군 진천읍 상산로 88-1 (읍내리),,36.8544879,127.4438888
47162,대구대신자이점,"대구 중구 달구벌대로 1955 (대신동, 대신센트럴자이)",053-262-9375,35.8647900,128.5777942
47077,거제옥포시장점,경남 거제시 옥포대첩로 36 (옥포동),055-687-7877,34.8933972,128.6915011
46980,인천삼산중학교점,인천 부평구 장제로340번길 49 (삼산동),032-518-0918,37.5159456,126.7351041
46857,아산모종점,충남 아산시 모종로 5 하연빌딩 제1동 104호,,36.7842457,127.0177227
46826,천안백석아이파크점,충남 천안시 서북구 한들3로 35-12 1층,041-561-0821,36.8269681,127.1227797
46823,인천부평성모병원점,인천 부평구 육동로 6 1층,032-362-2122,37.4857630,126.7247614
46802,고양지축점,경기 고양시 덕양구 지축로 62 112호,070-8680-2664,37.6495361,126.9149833
46691,고척아이파크점,서울 구로구 중앙로5길 59 RD동 상가 103호,070-8287-1972,37.5008534,126.8594648
46690,김해한림병동공단점,경남 김해시 한림면 김해대로916번길 134,,35.2850240,128.7916784
46683,화성봉담한신점,경기 화성시 봉담읍 와우로 20 (와우리),031-221-1232,37.2152650,126.9690813
46676,홍대삼거리점,서울 마포구 와우산로 73 (서교동),,37.5510240,126.9230121
46583,북한산보국문점,서울 성북구 보국문로 86,02-6012-7571,37.6119055,127.0085460
46576,마산봉암대로점,경남 창원시 마산회원구 봉양로 81 1층,055-295-8889,35.2210589,128.5960777
46472,광주문흥중학교점,광주 북구 천지인로173번길 30 1층,062-710-2936,35.1855349,126.9186449
46471,인천연수역남부점,"인천 연수구 벚꽃로 106 (청학동, 연수광장프라자)",032-819-0643,37.4176418,126.6772411
46206,동아대부민캠퍼스점,부산 서구 구덕로232번길 3 (부용동1가),051-715-8845,35.1053437,129.0205128
46191,답십리래미안점,서울 동대문구 답십리로 140 세기프라자 제1층 제107호,,37.5724894,127.0555973
46168,파주갈현점,경기 파주시 탄현면 평화로 584 2호,031-941-2977,37.7736177,126.7202034
46003,의정부송산점,경기 의정부시 충의로57번길 18 이도원빌딩 101호,,37.7367710,127.0861730
45996,광양창덕점,전남 광양시 광양읍 용강로 20 (용강리),070-4063-4856,34.9714657,127.6089204
45975,김포마송공원점,경기 김포시 통진읍 서암로6번길 19-20 (마송리),031-996-1093,37.6866039,126.5972823
45968,인천송도그린워크점,인천 연수구 컨벤시아대로130번길 100 더샵 그린워크3차 상가 104호,032-833-2924,37.3986114,126.6382575
45959,안산MTV점,경기 안산시 단원구 시화호수로841번길 28-21 103호,,37.2970128,126.7618676
45958,파주봉일천시장점,"경기 파주시 조리읍 봉천로 45 (봉일천리, 크라운베이커리)",,37.7436297,126.8066891
45869,광운대80주년기념관점,"서울 노원구 광운로 20 (월계동, 광운대학교)",02-909-1617,37.6197992,127.0584363
45862,광주매곡센트럴점,광주 북구 매곡로69번길 1 (매곡동),062-572-4779,35.1907943,126.8930220
45474,강릉포남점,"강원 강릉시 하평길 55-1 (포남동, 송정주공아파트 상가동)",033-922-8050,37.7701286,128.9148314
45358,춘천명동점,강원 춘천시 명동길 15 (조양동),033-257-7752,37.8791356,127.7271383
45357,부천역남부점,경기 부천시 성주로 268 (심곡본동),070-8287-1911,37.4822154,126.7822389
45356,꿈의숲아이파크점,"서울 성북구 돌곶이로40길 46 (장위동, 꿈의숲 아이파크)",02-6498-8468,37.6198290,127.0496134
45353,어린이대공원후문점,"서울 광진구 천호대로 666 (구의동, 그랜드파크 오피스텔)",02-456-7700,37.5513776,127.0893773
45352,인천남촌점,인천 남동구 남촌동로 36 1층,032-239-3393,37.4321754,126.7148887
45243,인천불로월드점,인천 서구 검단로 842 월드아파트 상가동 151호,,37.6186271,126.6908918
45196,천안성성초점,충남 천안시 서북구 성성6로 49,041-522-1800,36.8417421,127.1251716
45123,원주명륜1동점,강원 원주시 남원로 647 (명륜동),033-766-2525,37.3408211,127.9530456
45122,광주우산중흥센트럴점,광주 광산구 금봉로 106-2 132동 102호,062-710-5754,35.1518338,126.8108084
45073,대전태평점,"대전 중구 태평로 71 1층 139호(태평동, 삼부프라자)",070-7607-1799,36.3234125,127.3935356
45068,울산현대홈타운점,울산 남구 대암로 94 (야음동),052-258-8001,35.5294763,129.3258551
45053,함안칠서점,"경남 함안군 칠서면 함의로 26 (무릉리, 에이스그린상가)",070-8287-3328,35.3152871,128.5075814
44993,춘천한숲시티점,강원 춘천시 안마산로 114,033-254-0999,37.8538946,127.7276262
44770,송파삼전점,서울 송파구 백제고분로22길 3,02-415-0369,37.5034999,127.0894984
44576,춘천석사점,강원 춘천시 퇴계농공로 20 종로타워 1층 103호,033-263-3119,37.8515591,127.7442230
44567,청라에이스하이테크점,인천 서구 파랑로 495 4동 103호(청라동) 컴포즈커피,032-220-0018,37.5245702,126.6503185
44566,송파석촌점,서울 송파구 백제고분로41길 18,,37.5076740,127.1077957
44495,광나루역1호점,서울 광진구 천호대로 808 1202동 지하1층 지하 106호,02-452-1216,37.5448819,127.1029276
44458,파주해오름마을점,경기 파주시 해올2길 20 공감빌딩 103호,,37.7343301,126.7321317
44329,광주내남진아리채점,광주 동구 육판서길 16 상가동 105호,062-716-2027,35.0914049,126.9407623
44320,인천동구청점,"인천 동구 샛골로 123 108호(송림동, 노블리안힐스)",070-4798-1010,37.4734502,126.6439006
44207,안양개성하이뷰점,"경기 안양시 동안구 경수대로 555 (호계동, 개성하이뷰)",070-4241-7070,37.3720896,126.9573303
43996,신정2동점,서울 양천구 목동동로10길 11 101호,,37.5189922,126.8708942
43993,광주능평점,경기 광주시 능평로 221 (능평동),,37.3441401,127.1791114
43896,목포용당점,전남 목포시 동부로 5 (용당동),061-272-8482,34.8044448,126.3950022
43877,인천주안센트레빌점,인천 미추홀구 석정로433번길 31 (주안동),,37.4680462,126.6843967
43864,녹양역점,경기 의정부시 체육로 306-14 102호,,37.7604682,127.0413629
43779,속초영랑호점,강원 속초시 번영로105번길 36  102 (동명동),033-636-0585,38.2113615,128.5878451
43772,파주부흥,경기 파주시 광탄면 부흥로 131 1층 107호,070-4901-2537,37.8063480,126.8636960
43745,양산대동이미지점,경남 양산시 연호로 61 (삼호동),,35.4148429,129.1765928
43744,춘천우두두미르점,강원 춘천시 충열로 1-16,033-255-2824,37.9017553,127.7301670
43739,동인천역파크푸르지오점,인천 동구 화도진로 16 상가동 1층 107호,,37.4751178,126.6357058
43680,광주상무병원점,광주 서구 운천로 225 지하 1층,062-710-2151,35.1525077,126.8544011
43585,당산삼성타운점,"서울 영등포구 당산로44길 3 (당산동5가, 삼성타운)",,37.5319526,126.9009551
43520,강원영월점,강원 영월군 영월읍 관풍헌길 24,033-374-3527,37.1826039,128.4702838
43511,원주단구롯데시네마점,강원 원주시 서원대로 408 광장빌딩 117호,070-8287-3131,37.3299891,127.9500079
43474,김포마산점,경기 김포시 김포한강8로 161 (마산동),031-988-8181,37.6367114,126.6431554
43473,아산배방연화점,충남 아산시 배방읍 용연로 152 (장재리),041-533-5090,36.7836712,127.0936819
43085,숙등역포레나점,"부산 북구 만덕대로 81 (덕천동, 포레나부산덕천)",051-338-8960,35.2127083,129.0121916
43028,정읍연지중앙점,전북 정읍시 중앙로 55 영무예다음아파트 상가 제1동 104호,063-536-1100,35.5719399,126.8484626
43011,강남을지병원점,"서울 강남구 도산대로 202 (논현동, 강남을지병원)",02-542-0246,37.5194124,127.0286438
43010,인천부평동아2단지점,"인천 부평구 부흥로 251 (부평동, 경기빌딩)",,37.4989842,126.7197589
42935,파주운정산내마을점,"경기 파주시 교하로159번길 33 (목동동, 목동프라자)",070-8287-1400,37.7236346,126.7397339
42904,충장대로점,부산 중구 충장대로5번길 34 (중앙동4가),051-710-2450,35.1082296,129.0374890
42897,광주산정중학교점,광주 광산구 목련로 42 상가2동 1층 104호,062-710-0675,35.1720135,126.8022553
42780,진해구청점,경남 창원시 진해구 천자로 411 경동프라자 102호,055-719-3140,35.1353074,128.7098218
42533,김포디원시티점,경기 김포시 김포한강10로133번길 107,031-628-9004,37.6420717,126.6187544
42442,당진엠코타운점,충남 당진시 송산면 유곡2길 21 송산프라자 1층,041-358-3022,36.9632719,126.6893259
42418,분당이매점,경기 성남시 분당구 판교로 432 제일프라자 108호,031-8039-7222,37.4051350,127.1217436
42406,인천귤현점,인천 계양구 굴재길 2 석기빌딩 1층 일부호,,37.5673094,126.7489543
42283,남가좌DMC자이점,서울 서대문구 가재울미래로 17 102,070-8680-1510,37.5707558,126.9168774
42248,인천동양점,인천 계양구 양지로 8 (동양동),,37.5594537,126.7559902
42237,용인흥덕IT밸리점,"경기 용인시 기흥구 흥덕1로 13 (영덕동, 흥덕IT밸리)",031-340-1535,37.2710469,127.0664805
42173,평택고덕로데오점,경기 평택시 고덕갈평5길 32 그랜드메디컬타워 101호,031-8054-8977,37.0565574,127.0474102
42134,광주염주더샵점,"광주 서구 월드컵4강로 27 상가동 118호(화정동, 염주더샵센트럴파크)",062-716-1278,35.1393823,126.8759443
42125,인천송도인천대점,인천 연수구 하모니로 271 송도 코스테이 주건축물 제1동 102호,070-8880-6511,37.3739459,126.6366277
42040,청량리청과물점,서울 동대문구 답십리로 9,02-969-5544,37.5784693,127.0435286
41907,청주율량점,충북 청주시 청원구 율량로 104 105호,043-211-1662,36.6720468,127.4972652
41890,양산대학약국점,"경남 양산시 물금읍 화합2길 10 (범어리, 밀열가)",055-364-6406,35.3283788,129.0092601
41865,안암성북천점,서울 성북구 고려대로7길 74,010-8743-5755,37.5888189,127.0191754
41848,천안백석대점,충남 천안시 동남구 문암로 63 (안서동),041-563-9876,36.8406245,127.1802421
41817,대구안심점,대구 동구 경안로 761-1,053-965-3913,35.8700106,128.7134661
41810,장안중앙점,서울 동대문구 장한로 99 제 1층 101-2호,070-7617-1010,37.5697619,127.0697475
41809,광주오포더샵점,경기 광주시 태성3로 13 오포더샵 근린생활시설 2동 110호,070-8287-1003,37.3751001,127.2289592
41808,안산고대병원점,경기 안산시 단원구 적금로1길 11 104,070-7655-8903,37.3182829,126.8273090
41805,안산스마트스퀘어점,경기 안산시 단원구 산단로 325 (CA102호),,37.3233926,126.7851102
41762,용인내대지마을점,"경기 용인시 수지구 현암로 159 1층 104호(죽전동, 애코프라자)",031-276-4700,37.3319136,127.1271547
41665,대구대천점,"대구 달서구 진천로 117 (대천동, 월배이타운)",010-8570-9001,35.8188922,128.5212413
41644,양재도곡점,서울 강남구 남부순환로 2629,,37.4853244,127.0373812
41641,동탄라크몽점,경기 화성시 동탄대로5길 21 라크몽E123호,010-6243-0200,37.1669449,127.1055944
41640,수원권선고색점,경기 수원시 권선구 산업로156번길 201 103호,070-8807-7517,37.2418159,126.9871974
41639,서울대입구역1호점,"서울 관악구 봉천로 456 (봉천동, 영인 MC)",,37.4820777,126.9505776
41616,광주송정역점,광주 광산구 송정로 1 (송정동),062-710-7307,35.1375025,126.7920601
